$GPGGA,003915.000,3017.1217,N,09744.3692,W,1,09,0.9,171.2,M,-22.5,M,,0000*6D
$GPVTG,0.00,T,,M,0.00,N,0.0,K,A*0D
$GPGGA,003916.000,3017.1217,N,09744.3691,W,1,09,0.9,171.2,M,-22.5,M,,0000*6D
$GPVTG,0.00,T,,M,0.00,N,0.0,K,A*0D
$GPGGA,003917.000,3017.1217,N,09744.3691,W,1,09,0.9,171.2,M,-22.5,M,,0000*6C
$GPVTG,0.00,T,,M,0.00,N,0.0,K,A*0D
$GPGGA,003918.000,3017.1217,N,09744.3690,W,1,09,0.9,171.1,M,-22.5,M,,0000*61
$GPVTG,0.00,T,,M,0.00,N,0.0,K,A*0D
$GPGGA,003919.000,3017.1216,N,09744.3689,W,1,09,0.9,171.1,M,-22.5,M,,0000*69
$GPVTG,0.00,T,,M,0.00,N,0.0,K,A*0D
$GPGGA,003920.000,3017.1216,N,09744.3688,W,1,09,0.9,171.2,M,-22.5,M,,0000*61
$GPVTG,0.00,T,,M,0.00,N,0.0,K,A*0D
$GPGGA,003921.000,3017.1215,N,09744.3688,W,1,09,0.9,171.3,M,-22.5,M,,0000*62
$GPVTG,0.00,T,,M,0.00,N,0.0,K,A*0D
$GPGGA,003922.000,3017.1214,N,09744.3687,W,1,09,0.9,171.4,M,-22.5,M,,0000*68
$GPVTG,0.00,T,,M,0.00,N,0.0,K,A*0D
$GPGGA,003923.000,3017.1213,N,09744.3687,W,1,09,0.9,171.6,M,-22.5,M,,0000*6C
$GPVTG,0.00,T,,M,0.00,N,0.0,K,A*0D
$GPGGA,003924.000,3017.1212,N,09744.3686,W,1,09,0.9,171.8,M,-22.5,M,,0000*65
$GPVTG,0.00,T,,M,0.00,N,0.0,K,A*0D
$GPGGA,003925.000,3017.1210,N,09744.3686,W,1,09,0.9,172.1,M,-22.5,M,,0000*6C
$GPVTG,0.00,T,,M,0.00,N,0.0,K,A*0D
$GPGGA,003926.000,3017.1210,N,09744.3685,W,1,09,0.9,172.3,M,-22.5,M,,0000*6E
$GPVTG,0.00,T,,M,0.00,N,0.0,K,A*0D
$GPGGA,003927.000,3017.1209,N,09744.3685,W,1,09,0.9,172.6,M,-22.5,M,,0000*62
$GPVTG,0.00,T,,M,0.00,N,0.0,K,A*0D
$GPGGA,003928.000,3017.1208,N,09744.3684,W,1,09,0.9,172.8,M,-22.5,M,,0000*63
$GPVTG,0.00,T,,M,0.00,N,0.0,K,A*0D
$GPGGA,003929.000,3017.1206,N,09744.3684,W,1,09,0.9,173.2,M,-22.5,M,,0000*67
$GPVTG,0.00,T,,M,0.00,N,0.0,K,A*0D
$GPGGA,003930.000,3017.1206,N,09744.3684,W,1,09,0.9,173.4,M,-22.5,M,,0000*69
$GPVTG,0.00,T,,M,0.00,N,0.0,K,A*0D
$GPGGA,003931.000,3017.1205,N,09744.3683,W,1,09,0.9,173.7,M,-22.5,M,,0000*6F
$GPVTG,0.00,T,,M,0.00,N,0.0,K,A*0D
$GPGGA,003932.000,3017.1203,N,09744.3683,W,1,09,0.9,174.1,M,-22.5,M,,0000*6B
$GPVTG,0.00,T,,M,0.00,N,0.0,K,A*0D
$GPGGA,003933.000,3017.1203,N,09744.3683,W,1,09,0.9,174.4,M,-22.5,M,,0000*6F
$GPVTG,0.00,T,,M,0.00,N,0.0,K,A*0D
$GPGGA,003934.000,3017.1202,N,09744.3682,W,1,09,0.9,174.7,M,-22.5,M,,0000*6B
$GPVTG,0.00,T,,M,0.00,N,0.0,K,A*0D
$GPGGA,003935.000,3017.1201,N,09744.3682,W,1,09,0.9,174.9,M,-22.5,M,,0000*67
$GPVTG,0.00,T,,M,0.00,N,0.0,K,A*0D
$GPGGA,003936.000,3017.1200,N,09744.3682,W,1,09,0.9,175.2,M,-22.5,M,,0000*6F
$GPVTG,0.00,T,,M,0.00,N,0.0,K,A*0D
$GPGGA,003937.000,3017.1200,N,09744.3681,W,1,09,0.9,175.4,M,-22.5,M,,0000*6B
$GPVTG,0.00,T,,M,0.00,N,0.0,K,A*0D
$GPGGA,003938.000,3017.1199,N,09744.3681,W,1,09,0.9,175.6,M,-22.5,M,,0000*65
$GPVTG,0.00,T,,M,0.00,N,0.0,K,A*0D
$GPGGA,003939.000,3017.1199,N,09744.3681,W,1,09,0.9,175.8,M,-22.5,M,,0000*6A
$GPVTG,0.00,T,,M,0.00,N,0.0,K,A*0D
$GPGGA,003940.000,3017.1198,N,09744.3680,W,1,09,0.9,176.0,M,-22.5,M,,0000*6F
$GPVTG,0.00,T,,M,0.00,N,0.0,K,A*0D
$GPGGA,003941.000,3017.1198,N,09744.3680,W,1,09,0.9,176.1,M,-22.5,M,,0000*6F
$GPVTG,0.00,T,,M,0.00,N,0.0,K,A*0D
$GPGGA,003942.000,3017.1198,N,09744.3680,W,1,09,0.9,176.3,M,-22.5,M,,0000*6E
$GPVTG,0.00,T,,M,0.00,N,0.0,K,A*0D
$GPGGA,003943.000,3017.1197,N,09744.3680,W,1,09,0.9,176.5,M,-22.5,M,,0000*66
$GPVTG,0.00,T,,M,0.00,N,0.0,K,A*0D
$GPGGA,003944.000,3017.1197,N,09744.3679,W,1,09,0.9,176.6,M,-22.5,M,,0000*64
$GPVTG,0.00,T,,M,0.00,N,0.0,K,A*0D
$GPGGA,003945.000,3017.1197,N,09744.3679,W,1,09,0.9,176.8,M,-22.5,M,,0000*6B
$GPVTG,0.00,T,,M,0.00,N,0.0,K,A*0D
$GPGGA,003946.000,3017.1197,N,09744.3679,W,1,09,0.9,176.9,M,-22.5,M,,0000*69
$GPVTG,0.00,T,,M,0.00,N,0.0,K,A*0D
$GPGGA,003947.000,3017.1196,N,09744.3679,W,1,09,0.9,177.0,M,-22.5,M,,0000*61
$GPVTG,0.00,T,,M,0.00,N,0.0,K,A*0D
$GPGGA,003948.000,3017.1196,N,09744.3679,W,1,09,0.9,177.2,M,-22.5,M,,0000*6C
$GPVTG,0.00,T,,M,0.00,N,0.0,K,A*0D
$GPGGA,003949.000,3017.1196,N,09744.3679,W,1,09,0.9,177.4,M,-22.5,M,,0000*6B
$GPVTG,0.00,T,,M,0.00,N,0.0,K,A*0D
$GPGGA,003950.000,3017.1196,N,09744.3678,W,1,09,0.9,177.5,M,-22.5,M,,0000*63
$GPVTG,0.00,T,,M,0.00,N,0.0,K,A*0D
$GPGGA,003951.000,3017.1196,N,09744.3678,W,1,09,0.9,177.6,M,-22.5,M,,0000*61
$GPVTG,0.00,T,,M,0.00,N,0.0,K,A*0D
$GPGGA,003952.000,3017.1195,N,09744.3678,W,1,09,0.9,177.7,M,-22.5,M,,0000*60
$GPVTG,0.00,T,,M,0.00,N,0.0,K,A*0D
$GPGGA,003953.000,3017.1195,N,09744.3678,W,1,09,0.9,177.9,M,-22.5,M,,0000*6F
$GPVTG,0.00,T,,M,0.00,N,0.0,K,A*0D
$GPGGA,003954.000,3017.1195,N,09744.3678,W,1,09,0.9,178.0,M,-22.5,M,,0000*6E
$GPVTG,0.00,T,,M,0.00,N,0.0,K,A*0D
$GPGGA,003955.000,3017.1195,N,09744.3678,W,1,09,0.9,178.0,M,-22.5,M,,0000*6F
$GPVTG,0.00,T,,M,0.00,N,0.0,K,A*0D
$GPGGA,003956.000,3017.1195,N,09744.3678,W,1,09,0.9,178.1,M,-22.5,M,,0000*6D
$GPVTG,0.00,T,,M,0.00,N,0.0,K,A*0D
$GPGGA,003957.000,3017.1195,N,09744.3678,W,1,09,0.9,178.2,M,-22.5,M,,0000*6F
$GPVTG,0.00,T,,M,0.00,N,0.0,K,A*0D
$GPGGA,003958.000,3017.1195,N,09744.3678,W,1,09,0.9,178.2,M,-22.5,M,,0000*60
$GPVTG,0.00,T,,M,0.00,N,0.0,K,A*0D
$GPGGA,003959.000,3017.1196,N,09744.3677,W,1,09,0.9,178.3,M,-22.5,M,,0000*6C
$GPVTG,0.00,T,,M,0.00,N,0.0,K,A*0D
$GPGGA,004000.000,3017.1196,N,09744.3677,W,1,09,0.9,178.3,M,-22.5,M,,0000*6E
$GPVTG,0.00,T,,M,0.00,N,0.0,K,A*0D
$GPGGA,004001.000,3017.1196,N,09744.3677,W,1,09,0.9,178.3,M,-22.5,M,,0000*6F
$GPVTG,0.00,T,,M,0.00,N,0.0,K,A*0D
$GPGGA,004002.000,3017.1196,N,09744.3677,W,1,09,0.9,178.4,M,-22.5,M,,0000*6B
$GPVTG,0.00,T,,M,0.00,N,0.0,K,A*0D
$GPGGA,004003.000,3017.1196,N,09744.3677,W,1,09,0.9,178.4,M,-22.5,M,,0000*6A
$GPVTG,0.00,T,,M,0.00,N,0.0,K,A*0D
$GPGGA,004004.000,3017.1196,N,09744.3677,W,1,09,0.9,178.4,M,-22.5,M,,0000*6D
$GPVTG,0.00,T,,M,0.00,N,0.0,K,A*0D
$GPGGA,004005.000,3017.1196,N,09744.3677,W,1,09,0.9,178.4,M,-22.5,M,,0000*6C
$GPVTG,0.00,T,,M,0.00,N,0.0,K,A*0D
$GPGGA,004006.000,3017.1196,N,09744.3677,W,1,09,0.9,178.5,M,-22.5,M,,0000*6E
$GPVTG,0.00,T,,M,0.00,N,0.0,K,A*0D
$GPGGA,004007.000,3017.1197,N,09744.3677,W,1,09,0.9,178.5,M,-22.5,M,,0000*6E
$GPVTG,0.00,T,,M,0.00,N,0.0,K,A*0D
$GPGGA,004008.000,3017.1197,N,09744.3677,W,1,09,0.9,178.5,M,-22.5,M,,0000*61
$GPVTG,0.00,T,,M,0.00,N,0.0,K,A*0D
$GPGGA,004009.000,3017.1197,N,09744.3677,W,1,09,0.9,178.5,M,-22.5,M,,0000*60
$GPVTG,0.00,T,,M,0.00,N,0.0,K,A*0D
$GPGGA,004010.000,3017.1197,N,09744.3677,W,1,09,0.9,178.5,M,-22.5,M,,0000*68
$GPVTG,0.00,T,,M,0.00,N,0.0,K,A*0D
$GPGGA,004011.000,3017.1197,N,09744.3676,W,1,09,0.9,178.5,M,-22.5,M,,0000*68
$GPVTG,0.00,T,,M,0.00,N,0.0,K,A*0D
$GPGGA,004012.000,3017.1197,N,09744.3676,W,1,09,0.9,178.6,M,-22.5,M,,0000*68
$GPVTG,0.00,T,,M,0.00,N,0.0,K,A*0D
$GPGGA,004013.000,3017.1197,N,09744.3676,W,1,09,0.9,178.6,M,-22.5,M,,0000*69
$GPVTG,0.00,T,,M,0.00,N,0.0,K,A*0D
$GPGGA,004014.000,3017.1198,N,09744.3676,W,1,09,0.9,178.6,M,-22.5,M,,0000*61
$GPVTG,0.00,T,,M,0.00,N,0.0,K,A*0D
$GPGGA,004015.000,3017.1198,N,09744.3676,W,1,09,0.9,178.6,M,-22.5,M,,0000*60
$GPVTG,0.00,T,,M,0.00,N,0.0,K,A*0D
$GPGGA,004016.000,3017.1198,N,09744.3676,W,1,09,0.9,178.6,M,-22.5,M,,0000*63
$GPVTG,0.00,T,,M,0.00,N,0.0,K,A*0D
$GPGGA,004017.000,3017.1198,N,09744.3676,W,1,09,0.9,178.6,M,-22.5,M,,0000*62
$GPVTG,0.00,T,,M,0.00,N,0.0,K,A*0D
$GPGGA,004018.000,3017.1198,N,09744.3676,W,1,09,0.9,178.6,M,-22.5,M,,0000*6D
$GPVTG,0.00,T,,M,0.00,N,0.0,K,A*0D
$GPGGA,004019.000,3017.1198,N,09744.3676,W,1,09,0.9,178.6,M,-22.5,M,,0000*6C
$GPVTG,0.00,T,,M,0.00,N,0.0,K,A*0D
$GPGGA,004020.000,3017.1198,N,09744.3676,W,1,09,0.9,178.6,M,-22.5,M,,0000*66
$GPVTG,0.00,T,,M,0.00,N,0.0,K,A*0D
$GPGGA,004021.000,3017.1198,N,09744.3676,W,1,09,0.9,178.6,M,-22.5,M,,0000*67
$GPVTG,0.00,T,,M,0.00,N,0.0,K,A*0D
$GPGGA,004022.000,3017.1198,N,09744.3675,W,1,09,0.9,178.6,M,-22.5,M,,0000*67
$GPVTG,0.00,T,,M,0.00,N,0.0,K,A*0D
$GPGGA,004023.000,3017.1199,N,09744.3675,W,1,09,0.9,178.6,M,-22.5,M,,0000*67
$GPVTG,0.00,T,,M,0.00,N,0.0,K,A*0D
$GPGGA,004024.000,3017.1199,N,09744.3675,W,1,09,0.9,178.6,M,-22.5,M,,0000*60
$GPVTG,0.00,T,,M,0.00,N,0.0,K,A*0D
$GPGGA,004025.000,3017.1199,N,09744.3675,W,1,09,0.9,178.6,M,-22.5,M,,0000*61
$GPVTG,0.00,T,,M,0.00,N,0.0,K,A*0D
$GPGGA,004026.000,3017.1199,N,09744.3675,W,1,09,0.9,178.5,M,-22.5,M,,0000*61
$GPVTG,0.00,T,,M,0.00,N,0.0,K,A*0D
$GPGGA,004027.000,3017.1199,N,09744.3675,W,1,09,0.9,178.5,M,-22.5,M,,0000*60
$GPVTG,0.00,T,,M,0.00,N,0.0,K,A*0D
$GPGGA,004028.000,3017.1199,N,09744.3675,W,1,09,0.9,178.5,M,-22.5,M,,0000*6F
$GPVTG,0.00,T,,M,0.00,N,0.0,K,A*0D
$GPGGA,004029.000,3017.1199,N,09744.3675,W,1,09,0.9,178.5,M,-22.5,M,,0000*6E
$GPVTG,0.00,T,,M,0.00,N,0.0,K,A*0D
$GPGGA,004030.000,3017.1199,N,09744.3675,W,1,09,0.9,178.5,M,-22.5,M,,0000*66
$GPVTG,0.00,T,,M,0.00,N,0.0,K,A*0D
$GPGGA,004031.000,3017.1199,N,09744.3675,W,1,09,0.9,178.5,M,-22.5,M,,0000*67
$GPVTG,0.00,T,,M,0.00,N,0.0,K,A*0D
$GPGGA,004032.000,3017.1200,N,09744.3675,W,1,09,0.9,178.5,M,-22.5,M,,0000*67
$GPVTG,0.00,T,,M,0.00,N,0.0,K,A*0D
$GPGGA,004033.000,3017.1200,N,09744.3675,W,1,09,0.9,178.5,M,-22.5,M,,0000*66
$GPVTG,0.00,T,,M,0.00,N,0.0,K,A*0D
$GPGGA,004034.000,3017.1200,N,09744.3675,W,1,09,0.9,178.5,M,-22.5,M,,0000*61
$GPVTG,0.00,T,,M,0.00,N,0.0,K,A*0D
$GPGGA,004035.000,3017.1200,N,09744.3675,W,1,09,0.9,178.5,M,-22.5,M,,0000*60
$GPVTG,0.00,T,,M,0.00,N,0.0,K,A*0D
$GPGGA,004036.000,3017.1200,N,09744.3675,W,1,09,0.9,178.5,M,-22.5,M,,0000*63
$GPVTG,0.00,T,,M,0.00,N,0.0,K,A*0D
$GPGGA,004037.000,3017.1200,N,09744.3675,W,1,09,0.9,178.5,M,-22.5,M,,0000*62
$GPVTG,0.00,T,,M,0.00,N,0.0,K,A*0D
$GPGGA,004038.000,3017.1200,N,09744.3675,W,1,09,0.9,178.5,M,-22.5,M,,0000*6D
$GPVTG,0.00,T,,M,0.00,N,0.0,K,A*0D
$GPGGA,004039.000,3017.1200,N,09744.3675,W,1,09,0.9,178.5,M,-22.5,M,,0000*6C
$GPVTG,0.00,T,,M,0.00,N,0.0,K,A*0D
$GPGGA,004040.000,3017.1200,N,09744.3676,W,1,09,0.9,178.6,M,-22.5,M,,0000*62
$GPVTG,0.00,T,,M,0.00,N,0.0,K,A*0D
$GPGGA,004041.000,3017.1200,N,09744.3675,W,1,09,0.9,178.6,M,-22.5,M,,0000*60
$GPVTG,0.00,T,,M,0.00,N,0.0,K,A*0D
$GPGGA,004042.000,3017.1200,N,09744.3675,W,1,09,0.9,178.6,M,-22.5,M,,0000*63
$GPVTG,0.00,T,,M,0.00,N,0.0,K,A*0D
$GPGGA,004043.000,3017.1200,N,09744.3675,W,1,09,0.9,178.6,M,-22.5,M,,0000*62
$GPVTG,0.00,T,,M,0.00,N,0.0,K,A*0D
$GPGGA,004044.000,3017.1200,N,09744.3675,W,1,09,0.9,178.7,M,-22.5,M,,0000*64
$GPVTG,0.00,T,,M,0.00,N,0.0,K,A*0D
$GPGGA,004045.000,3017.1200,N,09744.3675,W,1,09,0.9,178.7,M,-22.5,M,,0000*65
$GPVTG,0.00,T,,M,0.00,N,0.0,K,A*0D
$GPGGA,004046.000,3017.1200,N,09744.3675,W,1,09,0.9,178.7,M,-22.5,M,,0000*66
$GPVTG,0.00,T,,M,0.00,N,0.0,K,A*0D
$GPGGA,004047.000,3017.1200,N,09744.3675,W,1,09,0.9,178.8,M,-22.5,M,,0000*68
$GPVTG,0.00,T,,M,0.00,N,0.0,K,A*0D
$GPGGA,004048.000,3017.1200,N,09744.3675,W,1,09,0.9,178.8,M,-22.5,M,,0000*67
$GPVTG,0.00,T,,M,0.00,N,0.0,K,A*0D
$GPGGA,004049.000,3017.1200,N,09744.3675,W,1,09,0.9,178.8,M,-22.5,M,,0000*66
$GPVTG,0.00,T,,M,0.00,N,0.0,K,A*0D
$GPGGA,004050.000,3017.1200,N,09744.3675,W,1,09,0.9,178.9,M,-22.5,M,,0000*6F
$GPVTG,0.00,T,,M,0.00,N,0.0,K,A*0D
$GPGGA,004051.000,3017.1200,N,09744.3675,W,1,09,0.9,178.9,M,-22.5,M,,0000*6E
$GPVTG,0.00,T,,M,0.00,N,0.0,K,A*0D
$GPGGA,004052.000,3017.1200,N,09744.3675,W,1,09,0.9,178.9,M,-22.5,M,,0000*6D
$GPVTG,0.00,T,,M,0.00,N,0.0,K,A*0D
$GPGGA,004053.000,3017.1200,N,09744.3675,W,1,09,0.9,179.0,M,-22.5,M,,0000*64
$GPVTG,0.00,T,,M,0.00,N,0.0,K,A*0D
$GPGGA,004054.000,3017.1200,N,09744.3675,W,1,09,0.9,179.0,M,-22.5,M,,0000*63
$GPVTG,0.00,T,,M,0.00,N,0.0,K,A*0D
$GPGGA,004055.000,3017.1199,N,09744.3674,W,1,09,0.9,179.1,M,-22.5,M,,0000*61
$GPVTG,0.00,T,,M,0.00,N,0.0,K,A*0D
$GPGGA,004056.000,3017.1199,N,09744.3674,W,1,09,0.9,179.1,M,-22.5,M,,0000*62
$GPVTG,0.00,T,,M,0.00,N,0.0,K,A*0D
$GPGGA,004057.000,3017.1199,N,09744.3674,W,1,09,0.9,179.2,M,-22.5,M,,0000*60
$GPVTG,0.00,T,,M,0.00,N,0.0,K,A*0D
$GPGGA,004058.000,3017.1199,N,09744.3674,W,1,09,0.9,179.2,M,-22.5,M,,0000*6F
$GPVTG,0.00,T,,M,0.00,N,0.0,K,A*0D
$GPGGA,004059.000,3017.1199,N,09744.3674,W,1,09,0.9,179.3,M,-22.5,M,,0000*6F
$GPVTG,0.00,T,,M,0.00,N,0.0,K,A*0D
$GPGGA,004100.000,3017.1199,N,09744.3674,W,1,09,0.9,179.3,M,-22.5,M,,0000*62
$GPVTG,0.00,T,,M,0.00,N,0.0,K,A*0D
$GPGGA,004101.000,3017.1199,N,09744.3674,W,1,09,0.9,179.3,M,-22.5,M,,0000*63
$GPVTG,0.00,T,,M,0.00,N,0.0,K,A*0D
$GPGGA,004102.000,3017.1199,N,09744.3674,W,1,09,0.9,179.4,M,-22.5,M,,0000*67
$GPVTG,0.00,T,,M,0.00,N,0.0,K,A*0D
$GPGGA,004103.000,3017.1199,N,09744.3674,W,1,09,0.9,179.4,M,-22.5,M,,0000*66
$GPVTG,0.00,T,,M,0.00,N,0.0,K,A*0D
$GPGGA,004104.000,3017.1199,N,09744.3674,W,1,09,0.9,179.4,M,-22.5,M,,0000*61
$GPVTG,0.00,T,,M,0.00,N,0.0,K,A*0D
$GPGGA,004105.000,3017.1199,N,09744.3674,W,1,08,1.1,179.5,M,-22.5,M,,0000*69
$GPVTG,0.00,T,,M,0.00,N,0.0,K,A*0D
$GPGGA,004106.000,3017.1198,N,09744.3674,W,1,08,1.1,179.5,M,-22.5,M,,0000*6B
$GPVTG,0.00,T,,M,0.00,N,0.0,K,A*0D
$GPGGA,004107.000,3017.1198,N,09744.3674,W,1,08,1.1,179.6,M,-22.5,M,,0000*69
$GPVTG,0.00,T,,M,0.00,N,0.0,K,A*0D
$GPGGA,004108.000,3017.1198,N,09744.3674,W,1,08,1.1,179.6,M,-22.5,M,,0000*66
$GPVTG,0.00,T,,M,0.00,N,0.0,K,A*0D
$GPGGA,004109.000,3017.1198,N,09744.3674,W,1,09,0.9,179.6,M,-22.5,M,,0000*6F
$GPVTG,0.00,T,,M,0.00,N,0.0,K,A*0D
$GPGGA,004110.000,3017.1198,N,09744.3674,W,1,09,0.9,179.6,M,-22.5,M,,0000*67
$GPVTG,0.00,T,,M,0.00,N,0.0,K,A*0D
$GPGGA,004111.000,3017.1198,N,09744.3674,W,1,09,0.9,179.7,M,-22.5,M,,0000*67
$GPVTG,0.00,T,,M,0.00,N,0.0,K,A*0D
$GPGGA,004112.000,3017.1198,N,09744.3674,W,1,09,0.9,179.7,M,-22.5,M,,0000*64
$GPVTG,0.00,T,,M,0.00,N,0.0,K,A*0D
$GPGGA,004113.000,3017.1198,N,09744.3674,W,1,09,0.9,179.7,M,-22.5,M,,0000*65
$GPVTG,0.00,T,,M,0.00,N,0.0,K,A*0D
$GPGGA,004114.000,3017.1198,N,09744.3674,W,1,09,0.9,179.7,M,-22.5,M,,0000*62
$GPVTG,0.00,T,,M,0.00,N,0.0,K,A*0D
$GPGGA,004115.000,3017.1198,N,09744.3674,W,1,09,0.9,179.8,M,-22.5,M,,0000*6C
$GPVTG,0.00,T,,M,0.00,N,0.0,K,A*0D
$GPGGA,004116.000,3017.1197,N,09744.3674,W,1,09,0.9,179.8,M,-22.5,M,,0000*60
$GPVTG,0.00,T,,M,0.00,N,0.0,K,A*0D
$GPGGA,004117.000,3017.1197,N,09744.3674,W,1,09,0.9,179.8,M,-22.5,M,,0000*61
$GPVTG,0.00,T,,M,0.00,N,0.0,K,A*0D
$GPGGA,004118.000,3017.1197,N,09744.3674,W,1,09,0.9,179.8,M,-22.5,M,,0000*6E
$GPVTG,0.00,T,,M,0.00,N,0.0,K,A*0D
$GPGGA,004119.000,3017.1197,N,09744.3674,W,1,09,0.9,179.8,M,-22.5,M,,0000*6F
$GPVTG,0.00,T,,M,0.00,N,0.0,K,A*0D
$GPGGA,004120.000,3017.1197,N,09744.3674,W,1,09,0.9,179.9,M,-22.5,M,,0000*64
$GPVTG,0.00,T,,M,0.00,N,0.0,K,A*0D
$GPGGA,004121.000,3017.1197,N,09744.3674,W,1,09,0.9,179.9,M,-22.5,M,,0000*65
$GPVTG,0.00,T,,M,0.00,N,0.0,K,A*0D
$GPGGA,004122.000,3017.1197,N,09744.3674,W,1,09,0.9,179.9,M,-22.5,M,,0000*66
$GPVTG,0.00,T,,M,0.00,N,0.0,K,A*0D
$GPGGA,004123.000,3017.1197,N,09744.3674,W,1,09,0.9,179.9,M,-22.5,M,,0000*67
$GPVTG,0.00,T,,M,0.00,N,0.0,K,A*0D
$GPGGA,004124.000,3017.1197,N,09744.3674,W,1,09,0.9,179.9,M,-22.5,M,,0000*60
$GPVTG,0.00,T,,M,0.00,N,0.0,K,A*0D
$GPGGA,004125.000,3017.1197,N,09744.3674,W,1,09,0.9,180.0,M,-22.5,M,,0000*6E
$GPVTG,0.00,T,,M,0.00,N,0.0,K,A*0D
$GPGGA,004126.000,3017.1196,N,09744.3674,W,1,09,0.9,180.0,M,-22.5,M,,0000*6C
$GPVTG,0.00,T,,M,0.00,N,0.0,K,A*0D
$GPGGA,004127.000,3017.1196,N,09744.3674,W,1,09,0.9,180.0,M,-22.5,M,,0000*6D
$GPVTG,0.00,T,,M,0.00,N,0.0,K,A*0D
$GPGGA,004128.000,3017.1196,N,09744.3674,W,1,09,0.9,180.0,M,-22.5,M,,0000*62
$GPVTG,0.00,T,,M,0.00,N,0.0,K,A*0D
$GPGGA,004129.000,3017.1196,N,09744.3674,W,1,09,0.9,180.0,M,-22.5,M,,0000*63
$GPVTG,0.00,T,,M,0.00,N,0.0,K,A*0D
$GPGGA,004130.000,3017.1196,N,09744.3674,W,1,09,0.9,180.0,M,-22.5,M,,0000*6B
$GPVTG,0.00,T,,M,0.00,N,0.0,K,A*0D
$GPGGA,004131.000,3017.1196,N,09744.3673,W,1,09,0.9,180.1,M,-22.5,M,,0000*6C
$GPVTG,0.00,T,,M,0.00,N,0.0,K,A*0D
$GPGGA,004132.000,3017.1196,N,09744.3673,W,1,09,0.9,180.1,M,-22.5,M,,0000*6F
$GPVTG,0.00,T,,M,0.00,N,0.0,K,A*0D
$GPGGA,004133.000,3017.1196,N,09744.3673,W,1,09,0.9,180.1,M,-22.5,M,,0000*6E
$GPVTG,0.00,T,,M,0.00,N,0.0,K,A*0D
$GPGGA,004134.000,3017.1196,N,09744.3673,W,1,09,0.9,180.1,M,-22.5,M,,0000*69
$GPVTG,0.00,T,,M,0.00,N,0.0,K,A*0D
$GPGGA,004135.000,3017.1196,N,09744.3673,W,1,09,0.9,180.1,M,-22.5,M,,0000*68
$GPVTG,0.00,T,,M,0.00,N,0.0,K,A*0D
$GPGGA,004136.000,3017.1196,N,09744.3673,W,1,09,0.9,180.1,M,-22.5,M,,0000*6B
$GPVTG,0.00,T,,M,0.00,N,0.0,K,A*0D
$GPGGA,004137.000,3017.1196,N,09744.3673,W,1,09,0.9,180.1,M,-22.5,M,,0000*6A
$GPVTG,0.00,T,,M,0.00,N,0.0,K,A*0D
$GPGGA,004138.000,3017.1196,N,09744.3673,W,1,09,0.9,180.1,M,-22.5,M,,0000*65
$GPVTG,0.00,T,,M,0.00,N,0.0,K,A*0D
$GPGGA,004139.000,3017.1196,N,09744.3672,W,1,09,0.9,180.2,M,-22.5,M,,0000*66
$GPVTG,0.00,T,,M,0.00,N,0.0,K,A*0D
$GPGGA,004140.000,3017.1196,N,09744.3672,W,1,09,0.9,180.2,M,-22.5,M,,0000*68
$GPVTG,0.00,T,,M,0.00,N,0.0,K,A*0D
$GPGGA,004141.000,3017.1195,N,09744.3672,W,1,09,0.9,180.2,M,-22.5,M,,0000*6A
$GPVTG,0.00,T,,M,0.00,N,0.0,K,A*0D
$GPGGA,004142.000,3017.1195,N,09744.3672,W,1,09,0.9,180.2,M,-22.5,M,,0000*69
$GPVTG,0.00,T,,M,0.00,N,0.0,K,A*0D
$GPGGA,004143.000,3017.1195,N,09744.3672,W,1,09,0.9,180.2,M,-22.5,M,,0000*68
$GPVTG,0.00,T,,M,0.00,N,0.0,K,A*0D
$GPGGA,004144.000,3017.1195,N,09744.3672,W,1,09,0.9,180.2,M,-22.5,M,,0000*6F
$GPVTG,0.00,T,,M,0.00,N,0.0,K,A*0D
$GPGGA,004145.000,3017.1195,N,09744.3672,W,1,09,0.9,180.2,M,-22.5,M,,0000*6E
$GPVTG,0.00,T,,M,0.00,N,0.0,K,A*0D
$GPGGA,004146.000,3017.1195,N,09744.3672,W,1,09,0.9,180.2,M,-22.5,M,,0000*6D
$GPVTG,0.00,T,,M,0.00,N,0.0,K,A*0D
$GPGGA,004147.000,3017.1195,N,09744.3672,W,1,09,0.9,180.2,M,-22.5,M,,0000*6C
$GPVTG,0.00,T,,M,0.00,N,0.0,K,A*0D
$GPGGA,004148.000,3017.1195,N,09744.3672,W,1,09,0.9,180.2,M,-22.5,M,,0000*63
$GPVTG,0.00,T,,M,0.00,N,0.0,K,A*0D
$GPGGA,004149.000,3017.1195,N,09744.3671,W,1,09,0.9,180.2,M,-22.5,M,,0000*61
$GPVTG,0.00,T,,M,0.00,N,0.0,K,A*0D
$GPGGA,004150.000,3017.1195,N,09744.3671,W,1,09,0.9,180.2,M,-22.5,M,,0000*69
$GPVTG,0.00,T,,M,0.00,N,0.0,K,A*0D
$GPGGA,004151.000,3017.1195,N,09744.3671,W,1,09,0.9,180.2,M,-22.5,M,,0000*68
$GPVTG,0.00,T,,M,0.00,N,0.0,K,A*0D
$GPGGA,004152.000,3017.1195,N,09744.3671,W,1,09,0.9,180.2,M,-22.5,M,,0000*6B
$GPVTG,0.00,T,,M,0.00,N,0.0,K,A*0D
$GPGGA,004153.000,3017.1195,N,09744.3671,W,1,09,0.9,180.2,M,-22.5,M,,0000*6A
$GPVTG,0.00,T,,M,0.00,N,0.0,K,A*0D
$GPGGA,004154.000,3017.1195,N,09744.3671,W,1,09,0.9,180.1,M,-22.5,M,,0000*6E
$GPVTG,0.00,T,,M,0.00,N,0.0,K,A*0D
$GPGGA,004155.000,3017.1195,N,09744.3671,W,1,09,0.9,180.1,M,-22.5,M,,0000*6F
$GPVTG,0.00,T,,M,0.00,N,0.0,K,A*0D
$GPGGA,004156.000,3017.1195,N,09744.3671,W,1,09,0.9,180.1,M,-22.5,M,,0000*6C
$GPVTG,0.00,T,,M,0.00,N,0.0,K,A*0D
$GPGGA,004157.000,3017.1195,N,09744.3671,W,1,09,0.9,180.1,M,-22.5,M,,0000*6D
$GPVTG,0.00,T,,M,0.00,N,0.0,K,A*0D
$GPGGA,004158.000,3017.1195,N,09744.3671,W,1,09,0.9,180.0,M,-22.5,M,,0000*63
$GPVTG,0.00,T,,M,0.00,N,0.0,K,A*0D
$GPGGA,004159.000,3017.1195,N,09744.3671,W,1,09,0.9,180.0,M,-22.5,M,,0000*62
$GPVTG,0.00,T,,M,0.00,N,0.0,K,A*0D
$GPGGA,004200.000,3017.1195,N,09744.3671,W,1,09,0.9,179.9,M,-22.5,M,,0000*62
$GPVTG,0.00,T,,M,0.00,N,0.0,K,A*0D
$GPGGA,004201.000,3017.1195,N,09744.3671,W,1,10,0.9,179.9,M,-22.5,M,,0000*6B
$GPVTG,0.00,T,,M,0.00,N,0.0,K,A*0D
$GPGGA,004202.000,3017.1196,N,09744.3671,W,1,10,0.9,179.8,M,-22.5,M,,0000*6A
$GPVTG,0.00,T,,M,0.00,N,0.0,K,A*0D
$GPGGA,004203.000,3017.1196,N,09744.3671,W,1,10,0.9,179.8,M,-22.5,M,,0000*6B
$GPVTG,0.00,T,,M,0.00,N,0.0,K,A*0D
$GPGGA,004204.000,3017.1196,N,09744.3671,W,1,10,0.9,179.8,M,-22.5,M,,0000*6C
$GPVTG,0.00,T,,M,0.00,N,0.0,K,A*0D
$GPGGA,004205.000,3017.1196,N,09744.3671,W,1,10,0.9,179.7,M,-22.5,M,,0000*62
$GPVTG,0.00,T,,M,0.00,N,0.0,K,A*0D
$GPGGA,004206.000,3017.1196,N,09744.3671,W,1,10,0.9,179.7,M,-22.5,M,,0000*61
$GPVTG,0.00,T,,M,0.00,N,0.0,K,A*0D
$GPGGA,004207.000,3017.1196,N,09744.3671,W,1,10,0.9,179.7,M,-22.5,M,,0000*60
$GPVTG,0.00,T,,M,0.00,N,0.0,K,A*0D
$GPGGA,004208.000,3017.1196,N,09744.3671,W,1,10,0.9,179.7,M,-22.5,M,,0000*6F
$GPVTG,0.00,T,,M,0.00,N,0.0,K,A*0D
$GPGGA,004209.000,3017.1196,N,09744.3671,W,1,10,0.9,179.6,M,-22.5,M,,0000*6F
$GPVTG,0.00,T,,M,0.00,N,0.0,K,A*0D
$GPGGA,004210.000,3017.1196,N,09744.3671,W,1,10,0.9,179.6,M,-22.5,M,,0000*67
$GPVTG,0.00,T,,M,0.00,N,0.0,K,A*0D
$GPGGA,004211.000,3017.1196,N,09744.3671,W,1,10,0.9,179.6,M,-22.5,M,,0000*66
$GPVTG,0.00,T,,M,0.00,N,0.0,K,A*0D
$GPGGA,004212.000,3017.1196,N,09744.3671,W,1,10,0.9,179.6,M,-22.5,M,,0000*65
$GPVTG,0.00,T,,M,0.00,N,0.0,K,A*0D
$GPGGA,004213.000,3017.1196,N,09744.3671,W,1,10,0.9,179.6,M,-22.5,M,,0000*64
$GPVTG,0.00,T,,M,0.00,N,0.0,K,A*0D
$GPGGA,004214.000,3017.1196,N,09744.3671,W,1,10,0.9,179.6,M,-22.5,M,,0000*63
$GPVTG,0.00,T,,M,0.00,N,0.0,K,A*0D
$GPGGA,004215.000,3017.1196,N,09744.3671,W,1,10,0.9,179.5,M,-22.5,M,,0000*61
$GPVTG,0.00,T,,M,0.00,N,0.0,K,A*0D
$GPGGA,004216.000,3017.1197,N,09744.3671,W,1,10,0.9,179.5,M,-22.5,M,,0000*63
$GPVTG,0.00,T,,M,0.00,N,0.0,K,A*0D
$GPGGA,004217.000,3017.1197,N,09744.3671,W,1,10,0.9,179.5,M,-22.5,M,,0000*62
$GPVTG,0.00,T,,M,0.00,N,0.0,K,A*0D
$GPGGA,004218.000,3017.1197,N,09744.3671,W,1,10,0.9,179.5,M,-22.5,M,,0000*6D
$GPVTG,0.00,T,,M,0.00,N,0.0,K,A*0D
$GPGGA,004219.000,3017.1197,N,09744.3671,W,1,10,0.9,179.5,M,-22.5,M,,0000*6C
$GPVTG,0.00,T,,M,0.00,N,0.0,K,A*0D
$GPGGA,004220.000,3017.1197,N,09744.3671,W,1,10,0.9,179.5,M,-22.5,M,,0000*66
$GPVTG,0.00,T,,M,0.00,N,0.0,K,A*0D
$GPGGA,004221.000,3017.1197,N,09744.3671,W,1,10,0.9,179.5,M,-22.5,M,,0000*67
$GPVTG,0.00,T,,M,0.00,N,0.0,K,A*0D
$GPGGA,004222.000,3017.1197,N,09744.3671,W,1,10,0.9,179.4,M,-22.5,M,,0000*65
$GPVTG,0.00,T,,M,0.00,N,0.0,K,A*0D
$GPGGA,004223.000,3017.1197,N,09744.3671,W,1,10,0.9,179.4,M,-22.5,M,,0000*64
$GPVTG,0.00,T,,M,0.00,N,0.0,K,A*0D
$GPGGA,004224.000,3017.1197,N,09744.3671,W,1,10,0.9,179.4,M,-22.5,M,,0000*63
$GPVTG,0.00,T,,M,0.00,N,0.0,K,A*0D
$GPGGA,004225.000,3017.1197,N,09744.3671,W,1,10,0.9,179.3,M,-22.5,M,,0000*65
$GPVTG,0.00,T,,M,0.00,N,0.0,K,A*0D
$GPGGA,004226.000,3017.1198,N,09744.3671,W,1,10,0.9,179.3,M,-22.5,M,,0000*69
$GPVTG,0.00,T,,M,0.00,N,0.0,K,A*0D
$GPGGA,004227.000,3017.1198,N,09744.3671,W,1,10,0.9,179.3,M,-22.5,M,,0000*68
$GPVTG,0.00,T,,M,0.00,N,0.0,K,A*0D
$GPGGA,004228.000,3017.1198,N,09744.3671,W,1,10,0.9,179.2,M,-22.5,M,,0000*66
$GPVTG,0.00,T,,M,0.00,N,0.0,K,A*0D
$GPGGA,004229.000,3017.1198,N,09744.3671,W,1,10,0.9,179.2,M,-22.5,M,,0000*67
$GPVTG,0.00,T,,M,0.00,N,0.0,K,A*0D
$GPGGA,004230.000,3017.1198,N,09744.3671,W,1,10,0.9,179.2,M,-22.5,M,,0000*6F
$GPVTG,0.00,T,,M,0.00,N,0.0,K,A*0D
$GPGGA,004231.000,3017.1198,N,09744.3671,W,1,10,0.9,179.2,M,-22.5,M,,0000*6E
$GPVTG,0.00,T,,M,0.00,N,0.0,K,A*0D
$GPGGA,004232.000,3017.1198,N,09744.3671,W,1,10,0.9,179.2,M,-22.5,M,,0000*6D
$GPVTG,0.00,T,,M,0.00,N,0.0,K,A*0D
$GPGGA,004233.000,3017.1198,N,09744.3671,W,1,10,0.9,179.2,M,-22.5,M,,0000*6C
$GPVTG,0.00,T,,M,0.00,N,0.0,K,A*0D
$GPGGA,004234.000,3017.1198,N,09744.3671,W,1,10,0.9,179.2,M,-22.5,M,,0000*6B
$GPVTG,0.00,T,,M,0.00,N,0.0,K,A*0D
$GPGGA,004235.000,3017.1198,N,09744.3671,W,1,10,0.9,179.2,M,-22.5,M,,0000*6A
$GPVTG,0.00,T,,M,0.00,N,0.0,K,A*0D
$GPGGA,004236.000,3017.1198,N,09744.3671,W,1,10,0.9,179.2,M,-22.5,M,,0000*69
$GPVTG,0.00,T,,M,0.00,N,0.0,K,A*0D
$GPGGA,004237.000,3017.1198,N,09744.3671,W,1,10,0.9,179.2,M,-22.5,M,,0000*68
$GPVTG,0.00,T,,M,0.00,N,0.0,K,A*0D
$GPGGA,004238.000,3017.1198,N,09744.3671,W,1,10,0.9,179.2,M,-22.5,M,,0000*67
$GPVTG,0.00,T,,M,0.00,N,0.0,K,A*0D
$GPGGA,004239.000,3017.1199,N,09744.3671,W,1,10,0.9,179.2,M,-22.5,M,,0000*67
$GPVTG,0.00,T,,M,0.00,N,0.0,K,A*0D
$GPGGA,004240.000,3017.1199,N,09744.3671,W,1,10,0.9,179.2,M,-22.5,M,,0000*69
$GPVTG,0.00,T,,M,0.00,N,0.0,K,A*0D
$GPGGA,004241.000,3017.1199,N,09744.3671,W,1,10,0.9,179.3,M,-22.5,M,,0000*69
$GPVTG,0.00,T,,M,0.00,N,0.0,K,A*0D
$GPGGA,004242.000,3017.1199,N,09744.3671,W,1,10,0.9,179.3,M,-22.5,M,,0000*6A
$GPVTG,0.00,T,,M,0.00,N,0.0,K,A*0D
$GPGGA,004243.000,3017.1199,N,09744.3671,W,1,10,0.9,179.3,M,-22.5,M,,0000*6B
$GPVTG,0.00,T,,M,0.00,N,0.0,K,A*0D
$GPGGA,004244.000,3017.1199,N,09744.3671,W,1,09,0.9,179.3,M,-22.5,M,,0000*64
$GPVTG,0.00,T,,M,0.00,N,0.0,K,A*0D
$GPGGA,004245.000,3017.1199,N,09744.3671,W,1,09,0.9,179.3,M,-22.5,M,,0000*65
$GPVTG,0.00,T,,M,0.00,N,0.0,K,A*0D
$GPGGA,004246.000,3017.1199,N,09744.3671,W,1,09,0.9,179.3,M,-22.5,M,,0000*66
$GPVTG,0.00,T,,M,0.00,N,0.0,K,A*0D
$GPGGA,004247.000,3017.1199,N,09744.3671,W,1,09,0.9,179.4,M,-22.5,M,,0000*60
$GPVTG,0.00,T,,M,0.00,N,0.0,K,A*0D
$GPGGA,004248.000,3017.1199,N,09744.3671,W,1,09,0.9,179.4,M,-22.5,M,,0000*6F
$GPVTG,0.00,T,,M,0.00,N,0.0,K,A*0D
$GPGGA,004249.000,3017.1199,N,09744.3671,W,1,09,0.9,179.4,M,-22.5,M,,0000*6E
$GPVTG,0.00,T,,M,0.00,N,0.0,K,A*0D
$GPGGA,004250.000,3017.1199,N,09744.3671,W,1,09,0.9,179.5,M,-22.5,M,,0000*67
$GPVTG,0.00,T,,M,0.00,N,0.0,K,A*0D
$GPGGA,004251.000,3017.1199,N,09744.3671,W,1,09,0.9,179.5,M,-22.5,M,,0000*66
$GPVTG,0.00,T,,M,0.00,N,0.0,K,A*0D
$GPGGA,004252.000,3017.1199,N,09744.3671,W,1,09,0.9,179.6,M,-22.5,M,,0000*66
$GPVTG,0.00,T,,M,0.00,N,0.0,K,A*0D
$GPGGA,004253.000,3017.1199,N,09744.3671,W,1,09,0.9,179.6,M,-22.5,M,,0000*67
$GPVTG,0.00,T,,M,0.00,N,0.0,K,A*0D
$GPGGA,004254.000,3017.1199,N,09744.3671,W,1,09,0.9,179.7,M,-22.5,M,,0000*61
$GPVTG,0.00,T,,M,0.00,N,0.0,K,A*0D
$GPGGA,004255.000,3017.1199,N,09744.3671,W,1,09,0.9,179.7,M,-22.5,M,,0000*60
$GPVTG,0.00,T,,M,0.00,N,0.0,K,A*0D
$GPGGA,004256.000,3017.1199,N,09744.3671,W,1,09,0.9,179.8,M,-22.5,M,,0000*6C
$GPVTG,0.00,T,,M,0.00,N,0.0,K,A*0D
$GPGGA,004257.000,3017.1199,N,09744.3671,W,1,09,0.9,179.8,M,-22.5,M,,0000*6D
$GPVTG,0.00,T,,M,0.00,N,0.0,K,A*0D
$GPGGA,004258.000,3017.1199,N,09744.3671,W,1,10,0.9,179.8,M,-22.5,M,,0000*6A
$GPVTG,0.00,T,,M,0.00,N,0.0,K,A*0D
$GPGGA,004259.000,3017.1199,N,09744.3671,W,1,10,0.9,179.9,M,-22.5,M,,0000*6A
$GPVTG,0.00,T,,M,0.00,N,0.0,K,A*0D
$GPGGA,004300.000,3017.1199,N,09744.3671,W,1,10,0.9,179.9,M,-22.5,M,,0000*67
$GPVTG,0.00,T,,M,0.00,N,0.0,K,A*0D
$GPGGA,004301.000,3017.1199,N,09744.3671,W,1,10,0.9,180.0,M,-22.5,M,,0000*69
$GPVTG,0.00,T,,M,0.00,N,0.0,K,A*0D
$GPGGA,004302.000,3017.1199,N,09744.3671,W,1,10,0.9,180.0,M,-22.5,M,,0000*6A
$GPVTG,0.00,T,,M,0.00,N,0.0,K,A*0D
$GPGGA,004303.000,3017.1199,N,09744.3671,W,1,10,0.9,180.1,M,-22.5,M,,0000*6A
$GPVTG,0.00,T,,M,0.00,N,0.0,K,A*0D
$GPGGA,004304.000,3017.1198,N,09744.3671,W,1,10,0.9,180.2,M,-22.5,M,,0000*6F
$GPVTG,0.00,T,,M,0.00,N,0.0,K,A*0D
$GPGGA,004305.000,3017.1198,N,09744.3671,W,1,10,0.9,180.2,M,-22.5,M,,0000*6E
$GPVTG,0.00,T,,M,0.00,N,0.0,K,A*0D
$GPGGA,004306.000,3017.1198,N,09744.3671,W,1,10,0.9,180.2,M,-22.5,M,,0000*6D
$GPVTG,0.00,T,,M,0.00,N,0.0,K,A*0D
$GPGGA,004307.000,3017.1198,N,09744.3671,W,1,10,0.9,180.3,M,-22.5,M,,0000*6D
$GPVTG,0.00,T,,M,0.00,N,0.0,K,A*0D
$GPGGA,004308.000,3017.1198,N,09744.3671,W,1,10,0.9,180.3,M,-22.5,M,,0000*62
$GPVTG,0.00,T,,M,0.00,N,0.0,K,A*0D
$GPGGA,004309.000,3017.1198,N,09744.3671,W,1,10,0.9,180.4,M,-22.5,M,,0000*64
$GPVTG,0.00,T,,M,0.00,N,0.0,K,A*0D
$GPGGA,004310.000,3017.1198,N,09744.3671,W,1,10,0.9,180.4,M,-22.5,M,,0000*6C
$GPVTG,0.00,T,,M,0.00,N,0.0,K,A*0D
$GPGGA,004311.000,3017.1198,N,09744.3671,W,1,10,0.9,180.5,M,-22.5,M,,0000*6C
$GPVTG,0.00,T,,M,0.00,N,0.0,K,A*0D
$GPGGA,004312.000,3017.1198,N,09744.3671,W,1,10,0.9,180.5,M,-22.5,M,,0000*6F
$GPVTG,0.00,T,,M,0.00,N,0.0,K,A*0D
$GPGGA,004313.000,3017.1198,N,09744.3671,W,1,10,0.9,180.6,M,-22.5,M,,0000*6D
$GPVTG,0.00,T,,M,0.00,N,0.0,K,A*0D
$GPGGA,004314.000,3017.1198,N,09744.3671,W,1,10,0.9,180.6,M,-22.5,M,,0000*6A
$GPVTG,0.00,T,,M,0.00,N,0.0,K,A*0D
$GPGGA,004315.000,3017.1198,N,09744.3671,W,1,10,0.9,180.7,M,-22.5,M,,0000*6A
$GPVTG,0.00,T,,M,0.00,N,0.0,K,A*0D
$GPGGA,004316.000,3017.1198,N,09744.3671,W,1,10,0.9,180.8,M,-22.5,M,,0000*66
$GPVTG,0.00,T,,M,0.00,N,0.0,K,A*0D
$GPGGA,004317.000,3017.1198,N,09744.3671,W,1,10,0.9,180.8,M,-22.5,M,,0000*67
$GPVTG,0.00,T,,M,0.00,N,0.0,K,A*0D
$GPGGA,004318.000,3017.1198,N,09744.3671,W,1,10,0.9,180.9,M,-22.5,M,,0000*69
$GPVTG,0.00,T,,M,0.00,N,0.0,K,A*0D
$GPGGA,004319.000,3017.1198,N,09744.3672,W,1,10,0.9,180.9,M,-22.5,M,,0000*6B
$GPVTG,0.00,T,,M,0.00,N,0.0,K,A*0D
$GPGGA,004320.000,3017.1198,N,09744.3672,W,1,10,0.9,181.0,M,-22.5,M,,0000*69
$GPVTG,0.00,T,,M,0.00,N,0.0,K,A*0D
$GPGGA,004321.000,3017.1198,N,09744.3672,W,1,10,0.9,181.0,M,-22.5,M,,0000*68
$GPVTG,0.00,T,,M,0.00,N,0.0,K,A*0D
$GPGGA,004322.000,3017.1198,N,09744.3672,W,1,10,0.9,181.1,M,-22.5,M,,0000*6A
$GPVTG,0.00,T,,M,0.00,N,0.0,K,A*0D
$GPGGA,004323.000,3017.1198,N,09744.3672,W,1,10,0.9,181.1,M,-22.5,M,,0000*6B
$GPVTG,0.00,T,,M,0.00,N,0.0,K,A*0D
$GPGGA,004324.000,3017.1198,N,09744.3672,W,1,10,0.9,181.1,M,-22.5,M,,0000*6C
$GPVTG,0.00,T,,M,0.00,N,0.0,K,A*0D
$GPGGA,004325.000,3017.1197,N,09744.3672,W,1,10,0.9,181.2,M,-22.5,M,,0000*61
$GPVTG,0.00,T,,M,0.00,N,0.0,K,A*0D
$GPGGA,004326.000,3017.1197,N,09744.3672,W,1,10,0.9,181.2,M,-22.5,M,,0000*62
$GPVTG,0.00,T,,M,0.00,N,0.0,K,A*0D
$GPGGA,004327.000,3017.1197,N,09744.3672,W,1,10,0.9,181.2,M,-22.5,M,,0000*63
$GPVTG,0.00,T,,M,0.00,N,0.0,K,A*0D
$GPGGA,004328.000,3017.1197,N,09744.3672,W,1,10,0.9,181.3,M,-22.5,M,,0000*6D
$GPVTG,0.00,T,,M,0.00,N,0.0,K,A*0D
$GPGGA,004329.000,3017.1197,N,09744.3672,W,1,10,0.9,181.3,M,-22.5,M,,0000*6C
$GPVTG,0.00,T,,M,0.00,N,0.0,K,A*0D
$GPGGA,004330.000,3017.1197,N,09744.3672,W,1,10,0.9,181.3,M,-22.5,M,,0000*64
$GPVTG,0.00,T,,M,0.00,N,0.0,K,A*0D
$GPGGA,004331.000,3017.1197,N,09744.3672,W,1,10,0.9,181.3,M,-22.5,M,,0000*65
$GPVTG,0.00,T,,M,0.00,N,0.0,K,A*0D
$GPGGA,004332.000,3017.1198,N,09744.3672,W,1,10,0.9,181.4,M,-22.5,M,,0000*6E
$GPVTG,0.00,T,,M,0.00,N,0.0,K,A*0D
$GPGGA,004333.000,3017.1198,N,09744.3672,W,1,10,0.9,181.4,M,-22.5,M,,0000*6F
$GPVTG,0.00,T,,M,0.00,N,0.0,K,A*0D
$GPGGA,004334.000,3017.1198,N,09744.3672,W,1,10,0.9,181.4,M,-22.5,M,,0000*68
$GPVTG,0.00,T,,M,0.00,N,0.0,K,A*0D
$GPGGA,004335.000,3017.1198,N,09744.3672,W,1,10,0.9,181.5,M,-22.5,M,,0000*68
$GPVTG,0.00,T,,M,0.00,N,0.0,K,A*0D
$GPGGA,004336.000,3017.1198,N,09744.3672,W,1,10,0.9,181.5,M,-22.5,M,,0000*6B
$GPVTG,0.00,T,,M,0.00,N,0.0,K,A*0D
$GPGGA,004337.000,3017.1198,N,09744.3672,W,1,10,0.9,181.5,M,-22.5,M,,0000*6A
$GPVTG,0.00,T,,M,0.00,N,0.0,K,A*0D