$GPGGA,010757.000,3017.2224,N,09744.0090,W,2,08,1.1,168.6,M,-22.5,M,,0000*64
$GPVTG,0.00,T,,M,0.00,N,0.0,K,D*08
$GPGGA,010758.000,3017.2224,N,09744.0089,W,2,08,1.1,168.1,M,-22.5,M,,0000*64
$GPVTG,0.00,T,,M,0.00,N,0.0,K,D*08
$GPGGA,010759.000,3017.2223,N,09744.0087,W,2,08,1.1,167.3,M,-22.5,M,,0000*61
$GPVTG,0.00,T,,M,0.00,N,0.0,K,D*08
$GPGGA,010800.000,3017.2222,N,09744.0086,W,2,08,1.1,166.8,M,-22.5,M,,0000*68
$GPVTG,0.00,T,,M,0.00,N,0.0,K,D*08
$GPGGA,010801.000,3017.2221,N,09744.0085,W,2,08,1.1,166.5,M,-22.5,M,,0000*64
$GPVTG,0.00,T,,M,0.00,N,0.0,K,D*08
$GPGGA,010802.000,3017.2220,N,09744.0085,W,2,09,1.0,166.4,M,-22.5,M,2.8,0000*43
$GPVTG,0.00,T,,M,0.00,N,0.0,K,D*08
$GPGGA,010803.000,3017.2219,N,09744.0085,W,2,09,1.0,166.2,M,-22.5,M,3.8,0000*4F
$GPVTG,0.00,T,,M,0.00,N,0.0,K,D*08
$GPGGA,010804.000,3017.2218,N,09744.0084,W,2,09,1.0,166.0,M,-22.5,M,,0000*6F
$GPVTG,0.00,T,,M,0.00,N,0.0,K,D*08
$GPGGA,010805.000,3017.2217,N,09744.0084,W,2,09,1.0,165.8,M,-22.5,M,,0000*6A
$GPVTG,0.00,T,,M,0.00,N,0.0,K,D*08
$GPGGA,010806.000,3017.2216,N,09744.0084,W,2,09,1.0,165.7,M,-22.5,M,,0000*67
$GPVTG,0.00,T,,M,0.00,N,0.0,K,D*08
$GPGGA,010807.000,3017.2216,N,09744.0083,W,2,09,1.0,165.4,M,-22.5,M,,0000*62
$GPVTG,0.00,T,,M,0.00,N,0.0,K,D*08
$GPGGA,010808.000,3017.2215,N,09744.0083,W,2,09,1.0,165.3,M,-22.5,M,2.8,0000*4D
$GPVTG,0.00,T,,M,0.00,N,0.0,K,D*08
$GPGGA,010809.000,3017.2215,N,09744.0083,W,2,09,1.0,165.1,M,-22.5,M,3.8,0000*4F
$GPVTG,0.00,T,,M,0.00,N,0.0,K,D*08
$GPGGA,010810.000,3017.2215,N,09744.0083,W,2,09,1.0,165.0,M,-22.5,M,,0000*63
$GPVTG,0.00,T,,M,0.00,N,0.0,K,D*08
$GPGGA,010811.000,3017.2214,N,09744.0082,W,2,09,1.0,164.8,M,-22.5,M,,0000*6B
$GPVTG,0.00,T,,M,0.00,N,0.0,K,D*08
$GPGGA,010812.000,3017.2214,N,09744.0082,W,2,09,1.0,164.7,M,-22.5,M,,0000*67
$GPVTG,0.00,T,,M,0.00,N,0.0,K,D*08
$GPGGA,010813.000,3017.2213,N,09744.0082,W,2,09,1.0,164.6,M,-22.5,M,2.8,0000*44
$GPVTG,0.00,T,,M,0.00,N,0.0,K,D*08
$GPGGA,010814.000,3017.2212,N,09744.0081,W,2,09,1.0,164.4,M,-22.5,M,3.8,0000*42
$GPVTG,0.00,T,,M,0.00,N,0.0,K,D*08
$GPGGA,010815.000,3017.2213,N,09744.0081,W,2,09,1.0,164.5,M,-22.5,M,4.8,0000*44
$GPVTG,0.00,T,,M,0.00,N,0.0,K,D*08
$GPGGA,010816.000,3017.2213,N,09744.0082,W,2,09,1.0,164.5,M,-22.5,M,,0000*66
$GPVTG,0.00,T,,M,0.00,N,0.0,K,D*08
$GPGGA,010817.000,3017.2213,N,09744.0082,W,2,09,1.0,164.5,M,-22.5,M,,0000*67
$GPVTG,0.00,T,,M,0.00,N,0.0,K,D*08
$GPGGA,010818.000,3017.2213,N,09744.0082,W,2,09,1.0,164.5,M,-22.5,M,,0000*68
$GPVTG,0.00,T,,M,0.00,N,0.0,K,D*08
$GPGGA,010819.000,3017.2213,N,09744.0083,W,2,09,1.0,164.5,M,-22.5,M,2.8,0000*4C
$GPVTG,0.00,T,,M,0.00,N,0.0,K,D*08
$GPGGA,010820.000,3017.2213,N,09744.0083,W,2,09,1.0,164.5,M,-22.5,M,3.8,0000*47
$GPVTG,0.00,T,,M,0.00,N,0.0,K,D*08
$GPGGA,010821.000,3017.2214,N,09744.0083,W,2,09,1.0,164.5,M,-22.5,M,4.8,0000*46
$GPVTG,0.00,T,,M,0.00,N,0.0,K,D*08
$GPGGA,010822.000,3017.2214,N,09744.0083,W,2,09,1.0,164.5,M,-22.5,M,,0000*67
$GPVTG,0.00,T,,M,0.00,N,0.0,K,D*08
$GPGGA,010823.000,3017.2214,N,09744.0084,W,2,09,1.0,164.5,M,-22.5,M,,0000*61
$GPVTG,0.00,T,,M,0.00,N,0.0,K,D*08
$GPGGA,010824.000,3017.2214,N,09744.0084,W,2,09,1.0,164.4,M,-22.5,M,,0000*67
$GPVTG,0.00,T,,M,0.00,N,0.0,K,D*08
$GPGGA,010825.000,3017.2214,N,09744.0083,W,2,09,1.0,164.4,M,-22.5,M,1.8,0000*46
$GPVTG,0.00,T,,M,0.00,N,0.0,K,D*08
$GPGGA,010826.000,3017.2214,N,09744.0083,W,2,09,1.0,164.4,M,-22.5,M,1.8,0000*45
$GPVTG,0.00,T,,M,0.00,N,0.0,K,D*08
$GPGGA,010827.000,3017.2214,N,09744.0083,W,2,09,1.0,164.4,M,-22.5,M,2.8,0000*47
$GPVTG,0.00,T,,M,0.00,N,0.0,K,D*08
$GPGGA,010828.000,3017.2214,N,09744.0083,W,2,09,1.0,164.4,M,-22.5,M,1.8,0000*4B
$GPVTG,0.00,T,,M,0.00,N,0.0,K,D*08
$GPGGA,010829.000,3017.2214,N,09744.0083,W,2,09,1.0,164.3,M,-22.5,M,1.8,0000*4D
$GPVTG,0.00,T,,M,0.00,N,0.0,K,D*08
$GPGGA,010830.000,3017.2214,N,09744.0083,W,2,09,1.0,164.3,M,-22.5,M,1.8,0000*45
$GPVTG,0.00,T,,M,0.00,N,0.0,K,D*08
$GPGGA,010831.000,3017.2214,N,09744.0083,W,2,09,1.0,164.3,M,-22.5,M,2.8,0000*47
$GPVTG,0.00,T,,M,0.00,N,0.0,K,D*08
$GPGGA,010832.000,3017.2213,N,09744.0083,W,2,09,1.0,164.2,M,-22.5,M,1.8,0000*41
$GPVTG,0.00,T,,M,0.00,N,0.0,K,D*08
$GPGGA,010833.000,3017.2213,N,09744.0082,W,2,09,1.0,164.1,M,-22.5,M,2.8,0000*41
$GPVTG,0.00,T,,M,0.00,N,0.0,K,D*08
$GPGGA,010834.000,3017.2213,N,09744.0082,W,2,09,1.0,164.1,M,-22.5,M,1.8,0000*45
$GPVTG,0.00,T,,M,0.00,N,0.0,K,D*08
$GPGGA,010835.000,3017.2213,N,09744.0082,W,2,09,1.0,164.0,M,-22.5,M,1.8,0000*45
$GPVTG,0.00,T,,M,0.00,N,0.0,K,D*08
$GPGGA,010836.000,3017.2213,N,09744.0081,W,2,09,1.0,163.8,M,-22.5,M,1.8,0000*4A
$GPVTG,0.00,T,,M,0.00,N,0.0,K,D*08
$GPGGA,010837.000,3017.2212,N,09744.0081,W,2,09,1.0,163.7,M,-22.5,M,2.8,0000*46
$GPVTG,0.00,T,,M,0.00,N,0.0,K,D*08
$GPGGA,010838.000,3017.2212,N,09744.0081,W,2,09,1.0,163.6,M,-22.5,M,3.8,0000*49
$GPVTG,0.00,T,,M,0.00,N,0.0,K,D*08
$GPGGA,010839.000,3017.2212,N,09744.0080,W,2,09,1.0,163.5,M,-22.5,M,4.8,0000*4D
$GPVTG,0.00,T,,M,0.00,N,0.0,K,D*08
$GPGGA,010840.000,3017.2212,N,09744.0080,W,2,09,1.0,163.3,M,-22.5,M,1.8,0000*40
$GPVTG,0.00,T,,M,0.00,N,0.0,K,D*08
$GPGGA,010841.000,3017.2212,N,09744.0080,W,2,09,1.0,163.2,M,-22.5,M,1.8,0000*40
$GPVTG,0.00,T,,M,0.00,N,0.0,K,D*08
$GPGGA,010842.000,3017.2211,N,09744.0080,W,2,09,1.0,163.1,M,-22.5,M,1.8,0000*43
$GPVTG,0.00,T,,M,0.00,N,0.0,K,D*08
$GPGGA,010843.000,3017.2211,N,09744.0080,W,2,09,1.0,163.1,M,-22.5,M,1.8,0000*42
$GPVTG,0.00,T,,M,0.00,N,0.0,K,D*08
$GPGGA,010844.000,3017.2211,N,09744.0079,W,2,09,1.0,163.0,M,-22.5,M,2.8,0000*41
$GPVTG,0.00,T,,M,0.00,N,0.0,K,D*08
$GPGGA,010845.000,3017.2211,N,09744.0079,W,2,09,1.0,163.0,M,-22.5,M,3.8,0000*41
$GPVTG,0.00,T,,M,0.00,N,0.0,K,D*08
$GPGGA,010846.000,3017.2211,N,09744.0079,W,2,09,1.0,162.9,M,-22.5,M,1.8,0000*48
$GPVTG,0.00,T,,M,0.00,N,0.0,K,D*08
$GPGGA,010847.000,3017.2211,N,09744.0078,W,2,09,1.0,162.9,M,-22.5,M,1.8,0000*48
$GPVTG,0.00,T,,M,0.00,N,0.0,K,D*08
$GPGGA,010848.000,3017.2211,N,09744.0078,W,2,09,1.0,162.7,M,-22.5,M,1.8,0000*49
$GPVTG,0.00,T,,M,0.00,N,0.0,K,D*08
$GPGGA,010849.000,3017.2210,N,09744.0078,W,2,09,1.0,162.6,M,-22.5,M,2.8,0000*4B
$GPVTG,0.00,T,,M,0.00,N,0.0,K,D*08
$GPGGA,010850.000,3017.2210,N,09744.0078,W,2,09,1.0,162.5,M,-22.5,M,3.8,0000*41
$GPVTG,0.00,T,,M,0.00,N,0.0,K,D*08
$GPGGA,010851.000,3017.2210,N,09744.0078,W,2,09,1.0,162.3,M,-22.5,M,4.8,0000*41
$GPVTG,0.00,T,,M,0.00,N,0.0,K,D*08
$GPGGA,010852.000,3017.2210,N,09744.0078,W,2,09,1.0,162.2,M,-22.5,M,5.8,0000*42
$GPVTG,0.00,T,,M,0.00,N,0.0,K,D*08
$GPGGA,010853.000,3017.2210,N,09744.0077,W,2,09,1.0,162.1,M,-22.5,M,1.8,0000*4B
$GPVTG,0.00,T,,M,0.00,N,0.0,K,D*08
$GPGGA,010854.000,3017.2209,N,09744.0077,W,2,09,1.0,162.1,M,-22.5,M,1.8,0000*44
$GPVTG,0.00,T,,M,0.00,N,0.0,K,D*08
$GPGGA,010855.000,3017.2209,N,09744.0077,W,2,09,1.0,162.0,M,-22.5,M,1.8,0000*44
$GPVTG,0.00,T,,M,0.00,N,0.0,K,D*08
$GPGGA,010856.000,3017.2209,N,09744.0076,W,2,09,1.0,161.8,M,-22.5,M,2.8,0000*4E
$GPVTG,0.00,T,,M,0.00,N,0.0,K,D*08
$GPGGA,010857.000,3017.2209,N,09744.0076,W,2,09,1.0,161.8,M,-22.5,M,3.8,0000*4E
$GPVTG,0.00,T,,M,0.00,N,0.0,K,D*08
$GPGGA,010858.000,3017.2208,N,09744.0076,W,2,09,1.0,161.8,M,-22.5,M,1.8,0000*42
$GPVTG,0.00,T,,M,0.00,N,0.0,K,D*08
$GPGGA,010859.000,3017.2208,N,09744.0075,W,2,09,1.0,161.7,M,-22.5,M,1.8,0000*4F
$GPVTG,0.00,T,,M,0.00,N,0.0,K,D*08
$GPGGA,010900.000,3017.2208,N,09744.0075,W,2,09,1.0,161.7,M,-22.5,M,1.8,0000*42
$GPVTG,0.00,T,,M,0.00,N,0.0,K,D*08
$GPGGA,010901.000,3017.2208,N,09744.0075,W,2,09,1.0,161.5,M,-22.5,M,2.8,0000*42
$GPVTG,0.00,T,,M,0.00,N,0.0,K,D*08
$GPGGA,010902.000,3017.2208,N,09744.0075,W,2,09,1.0,161.4,M,-22.5,M,3.8,0000*41
$GPVTG,0.00,T,,M,0.00,N,0.0,K,D*08
$GPGGA,010903.000,3017.2208,N,09744.0075,W,2,09,1.0,161.2,M,-22.5,M,4.8,0000*41
$GPVTG,0.00,T,,M,0.00,N,0.0,K,D*08
$GPGGA,010904.000,3017.2208,N,09744.0075,W,2,09,1.0,161.1,M,-22.5,M,1.8,0000*40
$GPVTG,0.00,T,,M,0.00,N,0.0,K,D*08
$GPGGA,010905.000,3017.2207,N,09744.0075,W,2,09,1.0,161.0,M,-22.5,M,1.8,0000*4F
$GPVTG,0.00,T,,M,0.00,N,0.0,K,D*08
$GPGGA,010906.000,3017.2207,N,09744.0074,W,2,09,1.0,160.9,M,-22.5,M,1.8,0000*45
$GPVTG,0.00,T,,M,0.00,N,0.0,K,D*08
$GPGGA,010907.000,3017.2207,N,09744.0074,W,2,09,1.0,160.8,M,-22.5,M,2.8,0000*46
$GPVTG,0.00,T,,M,0.00,N,0.0,K,D*08
$GPGGA,010908.000,3017.2206,N,09744.0074,W,2,09,1.0,160.7,M,-22.5,M,3.8,0000*46
$GPVTG,0.00,T,,M,0.00,N,0.0,K,D*08
$GPGGA,010909.000,3017.2206,N,09744.0073,W,2,09,1.0,160.6,M,-22.5,M,4.8,0000*46
$GPVTG,0.00,T,,M,0.00,N,0.0,K,D*08
$GPGGA,010910.000,3017.2205,N,09744.0073,W,2,09,1.0,160.5,M,-22.5,M,1.8,0000*4B
$GPVTG,0.00,T,,M,0.00,N,0.0,K,D*08
$GPGGA,010911.000,3017.2205,N,09744.0073,W,2,09,1.0,160.4,M,-22.5,M,1.8,0000*4B
$GPVTG,0.00,T,,M,0.00,N,0.0,K,D*08
$GPGGA,010912.000,3017.2205,N,09744.0072,W,2,09,1.0,160.3,M,-22.5,M,1.8,0000*4E
$GPVTG,0.00,T,,M,0.00,N,0.0,K,D*08
$GPGGA,010913.000,3017.2205,N,09744.0072,W,2,09,1.0,160.2,M,-22.5,M,1.8,0000*4E
$GPVTG,0.00,T,,M,0.00,N,0.0,K,D*08
$GPGGA,010914.000,3017.2205,N,09744.0072,W,2,09,1.0,160.1,M,-22.5,M,2.8,0000*49
$GPVTG,0.00,T,,M,0.00,N,0.0,K,D*08
$GPGGA,010915.000,3017.2205,N,09744.0072,W,2,09,1.0,160.0,M,-22.5,M,1.8,0000*4A
$GPVTG,0.00,T,,M,0.00,N,0.0,K,D*08
$GPGGA,010916.000,3017.2206,N,09744.0072,W,2,09,1.0,159.8,M,-22.5,M,1.8,0000*48
$GPVTG,0.00,T,,M,0.00,N,0.0,K,D*08
$GPGGA,010917.000,3017.2206,N,09744.0071,W,2,09,1.0,159.7,M,-22.5,M,1.8,0000*45
$GPVTG,0.00,T,,M,0.00,N,0.0,K,D*08
$GPGGA,010918.000,3017.2205,N,09744.0071,W,2,09,1.0,159.7,M,-22.5,M,1.8,0000*49
$GPVTG,0.00,T,,M,0.00,N,0.0,K,D*08
$GPGGA,010919.000,3017.2205,N,09744.0071,W,2,09,1.0,159.6,M,-22.5,M,2.8,0000*4A
$GPVTG,0.00,T,,M,0.00,N,0.0,K,D*08
$GPGGA,010920.000,3017.2205,N,09744.0070,W,2,09,1.0,159.5,M,-22.5,M,1.8,0000*41
$GPVTG,0.00,T,,M,0.00,N,0.0,K,D*08
$GPGGA,010921.000,3017.2204,N,09744.0070,W,2,09,1.0,159.5,M,-22.5,M,1.8,0000*41
$GPVTG,0.00,T,,M,0.00,N,0.0,K,D*08
$GPGGA,010922.000,3017.2204,N,09744.0070,W,2,09,1.0,159.5,M,-22.5,M,1.8,0000*42
$GPVTG,0.00,T,,M,0.00,N,0.0,K,D*08
$GPGGA,010923.000,3017.2204,N,09744.0070,W,2,09,1.0,159.4,M,-22.5,M,0.8,0000*43
$GPVTG,0.00,T,,M,0.00,N,0.0,K,D*08
$GPGGA,010924.000,3017.2204,N,09744.0069,W,2,09,1.0,159.3,M,-22.5,M,1.8,0000*4A
$GPVTG,0.00,T,,M,0.00,N,0.0,K,D*08
$GPGGA,010925.000,3017.2203,N,09744.0069,W,2,09,1.0,159.3,M,-22.5,M,2.8,0000*4F
$GPVTG,0.00,T,,M,0.00,N,0.0,K,D*08
$GPGGA,010926.000,3017.2203,N,09744.0069,W,2,09,1.0,159.2,M,-22.5,M,3.8,0000*4C
$GPVTG,0.00,T,,M,0.00,N,0.0,K,D*08
$GPGGA,010927.000,3017.2203,N,09744.0068,W,2,09,1.0,159.2,M,-22.5,M,1.8,0000*4E
$GPVTG,0.00,T,,M,0.00,N,0.0,K,D*08
$GPGGA,010928.000,3017.2203,N,09744.0068,W,2,09,1.0,159.2,M,-22.5,M,1.8,0000*41
$GPVTG,0.00,T,,M,0.00,N,0.0,K,D*08
$GPGGA,010929.000,3017.2203,N,09744.0068,W,2,09,1.0,159.2,M,-22.5,M,1.8,0000*40
$GPVTG,0.00,T,,M,0.00,N,0.0,K,D*08
$GPGGA,010930.000,3017.2203,N,09744.0068,W,2,09,1.0,159.2,M,-22.5,M,1.8,0000*48
$GPVTG,0.00,T,,M,0.00,N,0.0,K,D*08
$GPGGA,010931.000,3017.2202,N,09744.0068,W,2,09,1.0,159.2,M,-22.5,M,1.8,0000*48
$GPVTG,0.00,T,,M,0.00,N,0.0,K,D*08
$GPGGA,010932.000,3017.2202,N,09744.0068,W,2,08,1.1,159.2,M,-22.5,M,2.8,0000*48
$GPVTG,0.00,T,,M,0.00,N,0.0,K,D*08
$GPGGA,010933.000,3017.2202,N,09744.0068,W,2,08,1.1,159.3,M,-22.5,M,3.8,0000*49
$GPVTG,0.00,T,,M,0.00,N,0.0,K,D*08
$GPGGA,010934.000,3017.2202,N,09744.0068,W,2,08,1.1,159.3,M,-22.5,M,1.8,0000*4C
$GPVTG,0.00,T,,M,0.00,N,0.0,K,D*08
$GPGGA,010935.000,3017.2202,N,09744.0067,W,2,08,1.1,159.2,M,-22.5,M,1.8,0000*43
$GPVTG,0.00,T,,M,0.00,N,0.0,K,D*08
$GPGGA,010936.000,3017.2202,N,09744.0067,W,2,08,1.1,159.2,M,-22.5,M,1.8,0000*40
$GPVTG,0.00,T,,M,0.00,N,0.0,K,D*08
$GPGGA,010937.000,3017.2203,N,09744.0067,W,2,08,1.1,159.1,M,-22.5,M,1.8,0000*43
$GPVTG,0.00,T,,M,0.00,N,0.0,K,D*08
$GPGGA,010938.000,3017.2203,N,09744.0067,W,2,08,1.1,159.1,M,-22.5,M,2.8,0000*4F
$GPVTG,0.00,T,,M,0.00,N,0.0,K,D*08
$GPGGA,010939.000,3017.2203,N,09744.0067,W,2,08,1.1,159.0,M,-22.5,M,3.8,0000*4E
$GPVTG,0.00,T,,M,0.00,N,0.0,K,D*08
$GPGGA,010940.000,3017.2204,N,09744.0067,W,2,08,1.1,159.0,M,-22.5,M,1.8,0000*45
$GPVTG,0.00,T,,M,0.00,N,0.0,K,D*08
$GPGGA,010941.000,3017.2204,N,09744.0068,W,2,08,1.1,159.1,M,-22.5,M,1.8,0000*4A
$GPVTG,0.00,T,,M,0.00,N,0.0,K,D*08
$GPGGA,010942.000,3017.2204,N,09744.0068,W,2,08,1.1,159.2,M,-22.5,M,1.8,0000*4A
$GPVTG,0.00,T,,M,0.00,N,0.0,K,D*08
$GPGGA,010943.000,3017.2204,N,09744.0068,W,2,08,1.1,159.2,M,-22.5,M,2.8,0000*48
$GPVTG,0.00,T,,M,0.00,N,0.0,K,D*08
$GPGGA,010944.000,3017.2204,N,09744.0068,W,2,08,1.1,159.2,M,-22.5,M,3.8,0000*4E
$GPVTG,0.00,T,,M,0.00,N,0.0,K,D*08
$GPGGA,010945.000,3017.2204,N,09744.0067,W,2,08,1.1,159.2,M,-22.5,M,4.8,0000*47
$GPVTG,0.00,T,,M,0.00,N,0.0,K,D*08
$GPGGA,010946.000,3017.2204,N,09744.0067,W,2,08,1.1,159.1,M,-22.5,M,1.8,0000*42
$GPVTG,0.00,T,,M,0.00,N,0.0,K,D*08
$GPGGA,010947.000,3017.2203,N,09744.0067,W,2,08,1.1,159.1,M,-22.5,M,1.8,0000*44
$GPVTG,0.00,T,,M,0.00,N,0.0,K,D*08
$GPGGA,010948.000,3017.2204,N,09744.0067,W,2,08,1.1,159.0,M,-22.5,M,1.8,0000*4D
$GPVTG,0.00,T,,M,0.00,N,0.0,K,D*08
$GPGGA,010949.000,3017.2204,N,09744.0067,W,2,08,1.1,159.0,M,-22.5,M,2.8,0000*4F
$GPVTG,0.00,T,,M,0.00,N,0.0,K,D*08
$GPGGA,010950.000,3017.2204,N,09744.0067,W,2,08,1.1,158.9,M,-22.5,M,3.8,0000*4E
$GPVTG,0.00,T,,M,0.00,N,0.0,K,D*08
$GPGGA,010951.000,3017.2205,N,09744.0067,W,2,08,1.1,158.8,M,-22.5,M,4.8,0000*48
$GPVTG,0.00,T,,M,0.00,N,0.0,K,D*08
$GPGGA,010952.000,3017.2205,N,09744.0067,W,2,08,1.1,158.7,M,-22.5,M,1.8,0000*41
$GPVTG,0.00,T,,M,0.00,N,0.0,K,D*08
$GPGGA,010953.000,3017.2206,N,09744.0067,W,2,08,1.1,158.7,M,-22.5,M,1.8,0000*43
$GPVTG,0.00,T,,M,0.00,N,0.0,K,D*08
$GPGGA,010954.000,3017.2205,N,09744.0066,W,2,08,1.1,158.7,M,-22.5,M,1.8,0000*46
$GPVTG,0.00,T,,M,0.00,N,0.0,K,D*08
$GPGGA,010955.000,3017.2205,N,09744.0067,W,2,08,1.1,158.8,M,-22.5,M,2.8,0000*4A
$GPVTG,0.00,T,,M,0.00,N,0.0,K,D*08
$GPGGA,010956.000,3017.2205,N,09744.0067,W,2,08,1.1,158.8,M,-22.5,M,3.8,0000*48
$GPVTG,0.00,T,,M,0.00,N,0.0,K,D*08
$GPGGA,010957.000,3017.2205,N,09744.0067,W,2,08,1.1,158.9,M,-22.5,M,4.8,0000*4F
$GPVTG,0.00,T,,M,0.00,N,0.0,K,D*08
$GPGGA,010958.000,3017.2205,N,09744.0067,W,2,08,1.1,158.9,M,-22.5,M,1.8,0000*45
$GPVTG,0.00,T,,M,0.00,N,0.0,K,D*08
$GPGGA,010959.000,3017.2205,N,09744.0067,W,2,08,1.1,159.0,M,-22.5,M,1.8,0000*4C
$GPVTG,0.00,T,,M,0.00,N,0.0,K,D*08
$GPGGA,011000.000,3017.2205,N,09744.0067,W,2,08,1.1,159.0,M,-22.5,M,1.8,0000*48
$GPVTG,0.00,T,,M,0.00,N,0.0,K,D*08
$GPGGA,011001.000,3017.2205,N,09744.0067,W,2,08,1.1,159.0,M,-22.5,M,1.8,0000*49
$GPVTG,0.00,T,,M,0.00,N,0.0,K,D*08
$GPGGA,011002.000,3017.2205,N,09744.0067,W,2,09,1.0,158.8,M,-22.5,M,1.8,0000*43
$GPVTG,0.00,T,,M,0.00,N,0.0,K,D*08
$GPGGA,011003.000,3017.2206,N,09744.0067,W,2,09,1.0,158.7,M,-22.5,M,2.8,0000*4D
$GPVTG,0.00,T,,M,0.00,N,0.0,K,D*08
$GPGGA,011004.000,3017.2206,N,09744.0066,W,2,09,1.0,158.6,M,-22.5,M,1.8,0000*49
$GPVTG,0.00,T,,M,0.00,N,0.0,K,D*08
$GPGGA,011005.000,3017.2206,N,09744.0066,W,2,09,1.0,158.6,M,-22.5,M,1.8,0000*48
$GPVTG,0.00,T,,M,0.00,N,0.0,K,D*08
$GPGGA,011006.000,3017.2206,N,09744.0066,W,2,09,1.0,158.6,M,-22.5,M,1.8,0000*4B
$GPVTG,0.00,T,,M,0.00,N,0.0,K,D*08
$GPGGA,011007.000,3017.2206,N,09744.0066,W,2,09,1.0,158.5,M,-22.5,M,2.8,0000*4A
$GPVTG,0.00,T,,M,0.00,N,0.0,K,D*08
$GPGGA,011008.000,3017.2205,N,09744.0066,W,2,09,1.0,158.5,M,-22.5,M,3.8,0000*47
$GPVTG,0.00,T,,M,0.00,N,0.0,K,D*08
$GPGGA,011009.000,3017.2205,N,09744.0066,W,2,09,1.0,158.5,M,-22.5,M,4.8,0000*41
$GPVTG,0.00,T,,M,0.00,N,0.0,K,D*08
$GPGGA,011010.000,3017.2205,N,09744.0066,W,2,09,1.0,158.5,M,-22.5,M,1.8,0000*4C
$GPVTG,0.00,T,,M,0.00,N,0.0,K,D*08
$GPGGA,011011.000,3017.2204,N,09744.0066,W,2,09,1.0,158.5,M,-22.5,M,1.8,0000*4C
$GPVTG,0.00,T,,M,0.00,N,0.0,K,D*08
$GPGGA,011012.000,3017.2204,N,09744.0065,W,2,09,1.0,158.3,M,-22.5,M,1.8,0000*4A
$GPVTG,0.00,T,,M,0.00,N,0.0,K,D*08
$GPGGA,011013.000,3017.2205,N,09744.0065,W,2,09,1.0,158.2,M,-22.5,M,2.8,0000*48
$GPVTG,0.00,T,,M,0.00,N,0.0,K,D*08
$GPGGA,011014.000,3017.2205,N,09744.0065,W,2,09,1.0,158.1,M,-22.5,M,1.8,0000*4F
$GPVTG,0.00,T,,M,0.00,N,0.0,K,D*08
$GPGGA,011015.000,3017.2205,N,09744.0065,W,2,09,1.0,158.1,M,-22.5,M,2.8,0000*4D
$GPVTG,0.00,T,,M,0.00,N,0.0,K,D*08
$GPGGA,011016.000,3017.2205,N,09744.0064,W,2,09,1.0,158.0,M,-22.5,M,1.8,0000*4D
$GPVTG,0.00,T,,M,0.00,N,0.0,K,D*08
$GPGGA,011017.000,3017.2205,N,09744.0064,W,2,09,1.0,158.1,M,-22.5,M,1.8,0000*4D
$GPVTG,0.00,T,,M,0.00,N,0.0,K,D*08
$GPGGA,011018.000,3017.2205,N,09744.0064,W,2,09,1.0,158.0,M,-22.5,M,1.8,0000*43
$GPVTG,0.00,T,,M,0.00,N,0.0,K,D*08
$GPGGA,011019.000,3017.2205,N,09744.0064,W,2,09,1.0,158.0,M,-22.5,M,1.8,0000*42
$GPVTG,0.00,T,,M,0.00,N,0.0,K,D*08
$GPGGA,011020.000,3017.2204,N,09744.0064,W,2,09,1.0,158.0,M,-22.5,M,2.8,0000*4A
$GPVTG,0.00,T,,M,0.00,N,0.0,K,D*08
$GPGGA,011021.000,3017.2204,N,09744.0064,W,2,09,1.0,158.0,M,-22.5,M,3.8,0000*4A
$GPVTG,0.00,T,,M,0.00,N,0.0,K,D*08
$GPGGA,011022.000,3017.2204,N,09744.0064,W,2,09,1.0,157.9,M,-22.5,M,1.8,0000*4D
$GPVTG,0.00,T,,M,0.00,N,0.0,K,D*08
$GPGGA,011023.000,3017.2203,N,09744.0064,W,2,09,1.0,157.9,M,-22.5,M,1.8,0000*4B
$GPVTG,0.00,T,,M,0.00,N,0.0,K,D*08
$GPGGA,011024.000,3017.2203,N,09744.0063,W,2,09,1.0,157.8,M,-22.5,M,1.8,0000*4A
$GPVTG,0.00,T,,M,0.00,N,0.0,K,D*08
$GPGGA,011025.000,3017.2204,N,09744.0063,W,2,09,1.0,157.6,M,-22.5,M,2.8,0000*41
$GPVTG,0.00,T,,M,0.00,N,0.0,K,D*08
$GPGGA,011026.000,3017.2204,N,09744.0063,W,2,09,1.0,157.5,M,-22.5,M,3.8,0000*40
$GPVTG,0.00,T,,M,0.00,N,0.0,K,D*08
$GPGGA,011027.000,3017.2204,N,09744.0063,W,2,09,1.0,157.4,M,-22.5,M,4.8,0000*47
$GPVTG,0.00,T,,M,0.00,N,0.0,K,D*08
$GPGGA,011028.000,3017.2204,N,09744.0062,W,2,09,1.0,157.3,M,-22.5,M,5.8,0000*4F
$GPVTG,0.00,T,,M,0.00,N,0.0,K,D*08
$GPGGA,011029.000,3017.2204,N,09744.0062,W,2,09,1.0,157.2,M,-22.5,M,1.8,0000*4B
$GPVTG,0.00,T,,M,0.00,N,0.0,K,D*08
$GPGGA,011030.000,3017.2204,N,09744.0062,W,2,09,1.0,157.2,M,-22.5,M,1.8,0000*43
$GPVTG,0.00,T,,M,0.00,N,0.0,K,D*08
$GPGGA,011031.000,3017.2204,N,09744.0062,W,2,09,1.0,157.3,M,-22.5,M,1.8,0000*43
$GPVTG,0.00,T,,M,0.00,N,0.0,K,D*08
$GPGGA,011032.000,3017.2204,N,09744.0062,W,2,09,1.0,157.3,M,-22.5,M,2.8,0000*43
$GPVTG,0.00,T,,M,0.00,N,0.0,K,D*08
$GPGGA,011033.000,3017.2204,N,09744.0062,W,2,09,1.0,157.4,M,-22.5,M,3.8,0000*44
$GPVTG,0.00,T,,M,0.00,N,0.0,K,D*08
$GPGGA,011034.000,3017.2204,N,09744.0062,W,2,09,1.0,157.4,M,-22.5,M,1.8,0000*41
$GPVTG,0.00,T,,M,0.00,N,0.0,K,D*08
$GPGGA,011035.000,3017.2204,N,09744.0062,W,2,09,1.0,157.4,M,-22.5,M,1.8,0000*40
$GPVTG,0.00,T,,M,0.00,N,0.0,K,D*08
$GPGGA,011036.000,3017.2204,N,09744.0062,W,2,09,1.0,157.3,M,-22.5,M,1.8,0000*44
$GPVTG,0.00,T,,M,0.00,N,0.0,K,D*08
$GPGGA,011037.000,3017.2204,N,09744.0062,W,2,09,1.0,157.1,M,-22.5,M,2.8,0000*44
$GPVTG,0.00,T,,M,0.00,N,0.0,K,D*08
$GPGGA,011038.000,3017.2204,N,09744.0061,W,2,09,1.0,156.9,M,-22.5,M,3.8,0000*40
$GPVTG,0.00,T,,M,0.00,N,0.0,K,D*08
$GPGGA,011039.000,3017.2204,N,09744.0061,W,2,09,1.0,156.9,M,-22.5,M,4.8,0000*46
$GPVTG,0.00,T,,M,0.00,N,0.0,K,D*08
$GPGGA,011040.000,3017.2204,N,09744.0061,W,2,09,1.0,156.8,M,-22.5,M,1.8,0000*4C
$GPVTG,0.00,T,,M,0.00,N,0.0,K,D*08
$GPGGA,011041.000,3017.2203,N,09744.0061,W,2,09,1.0,156.7,M,-22.5,M,1.8,0000*45
$GPVTG,0.00,T,,M,0.00,N,0.0,K,D*08
$GPGGA,011042.000,3017.2203,N,09744.0061,W,2,09,1.0,156.8,M,-22.5,M,1.8,0000*49
$GPVTG,0.00,T,,M,0.00,N,0.0,K,D*08
$GPGGA,011043.000,3017.2203,N,09744.0061,W,2,09,1.0,156.8,M,-22.5,M,2.8,0000*4B
$GPVTG,0.00,T,,M,0.00,N,0.0,K,D*08
$GPGGA,011044.000,3017.2203,N,09744.0061,W,2,09,1.0,156.9,M,-22.5,M,3.8,0000*4C
$GPVTG,0.00,T,,M,0.00,N,0.0,K,D*08
$GPGGA,011045.000,3017.2203,N,09744.0061,W,2,09,1.0,157.0,M,-22.5,M,4.8,0000*42
$GPVTG,0.00,T,,M,0.00,N,0.0,K,D*08
$GPGGA,011046.000,3017.2202,N,09744.0061,W,2,09,1.0,157.0,M,-22.5,M,1.8,0000*45
$GPVTG,0.00,T,,M,0.00,N,0.0,K,D*08
$GPGGA,011047.000,3017.2202,N,09744.0061,W,2,09,1.0,157.0,M,-22.5,M,1.8,0000*44
$GPVTG,0.00,T,,M,0.00,N,0.0,K,D*08
$GPGGA,011048.000,3017.2202,N,09744.0061,W,2,09,1.0,157.0,M,-22.5,M,1.8,0000*4B
$GPVTG,0.00,T,,M,0.00,N,0.0,K,D*08
$GPGGA,011049.000,3017.2202,N,09744.0061,W,2,09,1.0,157.0,M,-22.5,M,2.8,0000*49
$GPVTG,0.00,T,,M,0.00,N,0.0,K,D*08
$GPGGA,011050.000,3017.2203,N,09744.0060,W,2,09,1.0,156.8,M,-22.5,M,1.8,0000*4B
$GPVTG,0.00,T,,M,0.00,N,0.0,K,D*08
$GPGGA,011051.000,3017.2203,N,09744.0060,W,2,09,1.0,156.8,M,-22.5,M,1.8,0000*4A
$GPVTG,0.00,T,,M,0.00,N,0.0,K,D*08
$GPGGA,011052.000,3017.2203,N,09744.0060,W,2,09,1.0,156.9,M,-22.5,M,1.8,0000*48
$GPVTG,0.00,T,,M,0.00,N,0.0,K,D*08
$GPGGA,011053.000,3017.2203,N,09744.0060,W,2,09,1.0,156.9,M,-22.5,M,1.8,0000*49
$GPVTG,0.00,T,,M,0.00,N,0.0,K,D*08
$GPGGA,011054.000,3017.2203,N,09744.0060,W,2,09,1.0,156.9,M,-22.5,M,1.8,0000*4E
$GPVTG,0.00,T,,M,0.00,N,0.0,K,D*08
$GPGGA,011055.000,3017.2203,N,09744.0060,W,2,09,1.0,157.0,M,-22.5,M,2.8,0000*44
$GPVTG,0.00,T,,M,0.00,N,0.0,K,D*08
$GPGGA,011056.000,3017.2202,N,09744.0060,W,2,09,1.0,156.9,M,-22.5,M,1.8,0000*4D
$GPVTG,0.00,T,,M,0.00,N,0.0,K,D*08
$GPGGA,011057.000,3017.2202,N,09744.0060,W,2,09,1.0,157.0,M,-22.5,M,1.8,0000*44
$GPVTG,0.00,T,,M,0.00,N,0.0,K,D*08
$GPGGA,011058.000,3017.2202,N,09744.0060,W,2,09,1.0,157.0,M,-22.5,M,1.8,0000*4B
$GPVTG,0.00,T,,M,0.00,N,0.0,K,D*08
$GPGGA,011059.000,3017.2202,N,09744.0060,W,2,09,1.0,157.0,M,-22.5,M,0.8,0000*4B
$GPVTG,0.00,T,,M,0.00,N,0.0,K,D*08
$GPGGA,011100.000,3017.2202,N,09744.0059,W,2,09,1.0,157.0,M,-22.5,M,1.8,0000*4D
$GPVTG,0.00,T,,M,0.00,N,0.0,K,D*08
$GPGGA,011101.000,3017.2201,N,09744.0059,W,2,09,1.0,157.0,M,-22.5,M,2.8,0000*4C
$GPVTG,0.00,T,,M,0.00,N,0.0,K,D*08
$GPGGA,011102.000,3017.2201,N,09744.0059,W,2,09,1.0,157.0,M,-22.5,M,3.8,0000*4E
$GPVTG,0.00,T,,M,0.00,N,0.0,K,D*08
$GPGGA,011103.000,3017.2201,N,09744.0059,W,2,09,1.0,157.0,M,-22.5,M,1.8,0000*4D
$GPVTG,0.00,T,,M,0.00,N,0.0,K,D*08
$GPGGA,011104.000,3017.2201,N,09744.0059,W,2,09,1.0,157.1,M,-22.5,M,1.8,0000*4B
$GPVTG,0.00,T,,M,0.00,N,0.0,K,D*08
$GPGGA,011105.000,3017.2201,N,09744.0059,W,2,09,1.0,157.1,M,-22.5,M,1.8,0000*4A
$GPVTG,0.00,T,,M,0.00,N,0.0,K,D*08
$GPGGA,011106.000,3017.2201,N,09744.0059,W,2,09,1.0,157.2,M,-22.5,M,1.8,0000*4A
$GPVTG,0.00,T,,M,0.00,N,0.0,K,D*08
$GPGGA,011107.000,3017.2201,N,09744.0059,W,2,09,1.0,157.3,M,-22.5,M,2.8,0000*49
$GPVTG,0.00,T,,M,0.00,N,0.0,K,D*08
$GPGGA,011108.000,3017.2200,N,09744.0059,W,2,09,1.0,157.4,M,-22.5,M,3.8,0000*41
$GPVTG,0.00,T,,M,0.00,N,0.0,K,D*08
$GPGGA,011109.000,3017.2200,N,09744.0059,W,2,09,1.0,157.4,M,-22.5,M,4.8,0000*47
$GPVTG,0.00,T,,M,0.00,N,0.0,K,D*08
$GPGGA,011110.000,3017.2200,N,09744.0059,W,2,09,1.0,157.4,M,-22.5,M,1.8,0000*4A
$GPVTG,0.00,T,,M,0.00,N,0.0,K,D*08
$GPGGA,011111.000,3017.2201,N,09744.0059,W,2,09,1.0,157.3,M,-22.5,M,1.8,0000*4D
$GPVTG,0.00,T,,M,0.00,N,0.0,K,D*08
$GPGGA,011112.000,3017.2201,N,09744.0059,W,2,09,1.0,157.3,M,-22.5,M,1.8,0000*4E
$GPVTG,0.00,T,,M,0.00,N,0.0,K,D*08
$GPGGA,011113.000,3017.2201,N,09744.0059,W,2,09,1.0,157.3,M,-22.5,M,1.8,0000*4F
$GPVTG,0.00,T,,M,0.00,N,0.0,K,D*08
$GPGGA,011114.000,3017.2201,N,09744.0059,W,2,09,1.0,157.2,M,-22.5,M,1.8,0000*49
$GPVTG,0.00,T,,M,0.00,N,0.0,K,D*08
$GPGGA,011115.000,3017.2201,N,09744.0059,W,2,09,1.0,157.2,M,-22.5,M,2.8,0000*4B
$GPVTG,0.00,T,,M,0.00,N,0.0,K,D*08
$GPGGA,011116.000,3017.2201,N,09744.0059,W,2,09,1.0,157.1,M,-22.5,M,1.8,0000*48
$GPVTG,0.00,T,,M,0.00,N,0.0,K,D*08
$GPGGA,011117.000,3017.2202,N,09744.0058,W,2,09,1.0,157.0,M,-22.5,M,1.8,0000*4A
$GPVTG,0.00,T,,M,0.00,N,0.0,K,D*08
$GPGGA,011118.000,3017.2202,N,09744.0058,W,2,09,1.0,157.1,M,-22.5,M,1.8,0000*44
$GPVTG,0.00,T,,M,0.00,N,0.0,K,D*08
$GPGGA,011119.000,3017.2201,N,09744.0058,W,2,09,1.0,157.2,M,-22.5,M,1.8,0000*45
$GPVTG,0.00,T,,M,0.00,N,0.0,K,D*08
$GPGGA,011120.000,3017.2201,N,09744.0059,W,2,09,1.0,157.4,M,-22.5,M,2.8,0000*4B
$GPVTG,0.00,T,,M,0.00,N,0.0,K,D*08
$GPGGA,011121.000,3017.2201,N,09744.0059,W,2,09,1.0,157.5,M,-22.5,M,3.8,0000*4A
$GPVTG,0.00,T,,M,0.00,N,0.0,K,D*08
$GPGGA,011122.000,3017.2201,N,09744.0059,W,2,09,1.0,157.7,M,-22.5,M,1.8,0000*49
$GPVTG,0.00,T,,M,0.00,N,0.0,K,D*08
$GPGGA,011123.000,3017.2200,N,09744.0059,W,2,09,1.0,157.7,M,-22.5,M,1.8,0000*49
$GPVTG,0.00,T,,M,0.00,N,0.0,K,D*08
$GPGGA,011124.000,3017.2200,N,09744.0059,W,2,08,1.1,157.6,M,-22.5,M,1.8,0000*4F
$GPVTG,0.00,T,,M,0.00,N,0.0,K,D*08
$GPGGA,011125.000,3017.2201,N,09744.0059,W,2,08,1.1,157.6,M,-22.5,M,2.8,0000*4C
$GPVTG,0.00,T,,M,0.00,N,0.0,K,D*08
$GPGGA,011126.000,3017.2201,N,09744.0059,W,2,08,1.1,157.5,M,-22.5,M,3.8,0000*4D
$GPVTG,0.00,T,,M,0.00,N,0.0,K,D*08
$GPGGA,011127.000,3017.2201,N,09744.0059,W,2,08,1.1,157.5,M,-22.5,M,4.8,0000*4B
$GPVTG,0.00,T,,M,0.00,N,0.0,K,D*08
$GPGGA,011128.000,3017.2201,N,09744.0059,W,2,08,1.1,157.4,M,-22.5,M,1.8,0000*40
$GPVTG,0.00,T,,M,0.00,N,0.0,K,D*08
$GPGGA,011129.000,3017.2201,N,09744.0059,W,2,08,1.1,157.3,M,-22.5,M,1.8,0000*46
$GPVTG,0.00,T,,M,0.00,N,0.0,K,D*08
$GPGGA,011130.000,3017.2201,N,09744.0058,W,2,08,1.1,157.2,M,-22.5,M,1.8,0000*4E
$GPVTG,0.00,T,,M,0.00,N,0.0,K,D*08
$GPGGA,011131.000,3017.2201,N,09744.0058,W,2,08,1.1,157.2,M,-22.5,M,2.8,0000*4C
$GPVTG,0.00,T,,M,0.00,N,0.0,K,D*08
$GPGGA,011132.000,3017.2201,N,09744.0058,W,2,08,1.1,157.2,M,-22.5,M,3.8,0000*4E
$GPVTG,0.00,T,,M,0.00,N,0.0,K,D*08
$GPGGA,011133.000,3017.2201,N,09744.0058,W,2,08,1.1,157.3,M,-22.5,M,4.8,0000*49
$GPVTG,0.00,T,,M,0.00,N,0.0,K,D*08
$GPGGA,011134.000,3017.2201,N,09744.0058,W,2,08,1.1,157.3,M,-22.5,M,1.8,0000*4B
$GPVTG,0.00,T,,M,0.00,N,0.0,K,D*08
$GPGGA,011135.000,3017.2200,N,09744.0058,W,2,08,1.1,157.3,M,-22.5,M,1.8,0000*4B
$GPVTG,0.00,T,,M,0.00,N,0.0,K,D*08
$GPGGA,011136.000,3017.2201,N,09744.0058,W,2,08,1.1,157.2,M,-22.5,M,1.8,0000*48
$GPVTG,0.00,T,,M,0.00,N,0.0,K,D*08
$GPGGA,011137.000,3017.2201,N,09744.0058,W,2,08,1.1,157.1,M,-22.5,M,1.8,0000*4A
$GPVTG,0.00,T,,M,0.00,N,0.0,K,D*08
$GPGGA,011138.000,3017.2201,N,09744.0058,W,2,08,1.1,156.9,M,-22.5,M,2.8,0000*4F
$GPVTG,0.00,T,,M,0.00,N,0.0,K,D*08
$GPGGA,011139.000,3017.2201,N,09744.0058,W,2,08,1.1,156.8,M,-22.5,M,3.8,0000*4E
$GPVTG,0.00,T,,M,0.00,N,0.0,K,D*08
$GPGGA,011140.000,3017.2202,N,09744.0057,W,2,08,1.1,156.6,M,-22.5,M,1.8,0000*40
$GPVTG,0.00,T,,M,0.00,N,0.0,K,D*08
$GPGGA,011141.000,3017.2202,N,09744.0057,W,2,08,1.1,156.4,M,-22.5,M,1.8,0000*43
$GPVTG,0.00,T,,M,0.00,N,0.0,K,D*08
$GPGGA,011142.000,3017.2202,N,09744.0057,W,2,07,1.2,156.4,M,-22.5,M,1.8,0000*4C
$GPVTG,0.00,T,,M,0.00,N,0.0,K,D*08
$GPGGA,011143.000,3017.2202,N,09744.0057,W,2,07,1.2,156.4,M,-22.5,M,2.8,0000*4E
$GPVTG,0.00,T,,M,0.00,N,0.0,K,D*08
$GPGGA,011144.000,3017.2201,N,09744.0057,W,2,07,1.2,156.4,M,-22.5,M,3.8,0000*4B
$GPVTG,0.00,T,,M,0.00,N,0.0,K,D*08
$GPGGA,011145.000,3017.2201,N,09744.0057,W,2,07,1.2,156.5,M,-22.5,M,1.8,0000*49
$GPVTG,0.00,T,,M,0.00,N,0.0,K,D*08
$GPGGA,011146.000,3017.2201,N,09744.0057,W,2,07,1.2,156.5,M,-22.5,M,1.8,0000*4A
$GPVTG,0.00,T,,M,0.00,N,0.0,K,D*08
$GPGGA,011147.000,3017.2201,N,09744.0057,W,2,08,1.1,156.5,M,-22.5,M,1.8,0000*47
$GPVTG,0.00,T,,M,0.00,N,0.0,K,D*08
$GPGGA,011148.000,3017.2201,N,09744.0056,W,2,08,1.1,156.3,M,-22.5,M,1.8,0000*4F
$GPVTG,0.00,T,,M,0.00,N,0.0,K,D*08
$GPGGA,011149.000,3017.2201,N,09744.0056,W,2,08,1.1,156.2,M,-22.5,M,2.8,0000*4C
$GPVTG,0.00,T,,M,0.00,N,0.0,K,D*08
$GPGGA,011150.000,3017.2201,N,09744.0056,W,2,08,1.1,156.2,M,-22.5,M,3.8,0000*45
$GPVTG,0.00,T,,M,0.00,N,0.0,K,D*08
$GPGGA,011151.000,3017.2201,N,09744.0056,W,2,08,1.1,156.1,M,-22.5,M,4.8,0000*40
$GPVTG,0.00,T,,M,0.00,N,0.0,K,D*08
$GPGGA,011152.000,3017.2201,N,09744.0056,W,2,08,1.1,156.1,M,-22.5,M,1.8,0000*46
$GPVTG,0.00,T,,M,0.00,N,0.0,K,D*08
$GPGGA,011153.000,3017.2201,N,09744.0056,W,2,08,1.1,156.0,M,-22.5,M,1.8,0000*46
$GPVTG,0.00,T,,M,0.00,N,0.0,K,D*08
$GPGGA,011154.000,3017.2201,N,09744.0055,W,2,09,1.0,155.9,M,-22.5,M,1.8,0000*48
$GPVTG,0.00,T,,M,0.00,N,0.0,K,D*08
$GPGGA,011155.000,3017.2202,N,09744.0055,W,2,09,1.0,155.8,M,-22.5,M,2.8,0000*48
$GPVTG,0.00,T,,M,0.00,N,0.0,K,D*08
$GPGGA,011156.000,3017.2202,N,09744.0055,W,2,09,1.0,155.8,M,-22.5,M,3.8,0000*4A
$GPVTG,0.00,T,,M,0.00,N,0.0,K,D*08
$GPGGA,011157.000,3017.2202,N,09744.0055,W,2,09,1.0,155.7,M,-22.5,M,4.8,0000*43
$GPVTG,0.00,T,,M,0.00,N,0.0,K,D*08
$GPGGA,011158.000,3017.2202,N,09744.0055,W,2,09,1.0,155.7,M,-22.5,M,1.8,0000*49
$GPVTG,0.00,T,,M,0.00,N,0.0,K,D*08
$GPGGA,011159.000,3017.2202,N,09744.0055,W,2,09,1.0,155.6,M,-22.5,M,1.8,0000*49
$GPVTG,0.00,T,,M,0.00,N,0.0,K,D*08
$GPGGA,011200.000,3017.2202,N,09744.0055,W,2,09,1.0,155.4,M,-22.5,M,1.8,0000*44
$GPVTG,0.00,T,,M,0.00,N,0.0,K,D*08
$GPGGA,011201.000,3017.2202,N,09744.0055,W,2,09,1.0,155.4,M,-22.5,M,1.8,0000*45
$GPVTG,0.00,T,,M,0.00,N,0.0,K,D*08
$GPGGA,011202.000,3017.2202,N,09744.0055,W,2,09,1.0,155.4,M,-22.5,M,2.8,0000*45
$GPVTG,0.00,T,,M,0.00,N,0.0,K,D*08
$GPGGA,011203.000,3017.2202,N,09744.0054,W,2,09,1.0,155.2,M,-22.5,M,3.8,0000*42
$GPVTG,0.00,T,,M,0.00,N,0.0,K,D*08
$GPGGA,011204.000,3017.2202,N,09744.0054,W,2,09,1.0,155.2,M,-22.5,M,4.8,0000*42
$GPVTG,0.00,T,,M,0.00,N,0.0,K,D*08
$GPGGA,011205.000,3017.2201,N,09744.0054,W,2,09,1.0,155.2,M,-22.5,M,1.8,0000*45
$GPVTG,0.00,T,,M,0.00,N,0.0,K,D*08
$GPGGA,011206.000,3017.2201,N,09744.0054,W,2,09,1.0,155.3,M,-22.5,M,1.8,0000*47
$GPVTG,0.00,T,,M,0.00,N,0.0,K,D*08
$GPGGA,011207.000,3017.2201,N,09744.0054,W,2,09,1.0,155.4,M,-22.5,M,1.8,0000*41
$GPVTG,0.00,T,,M,0.00,N,0.0,K,D*08
$GPGGA,011208.000,3017.2201,N,09744.0054,W,2,09,1.0,155.3,M,-22.5,M,1.8,0000*49
$GPVTG,0.00,T,,M,0.00,N,0.0,K,D*08
$GPGGA,011209.000,3017.2201,N,09744.0053,W,2,09,1.0,155.2,M,-22.5,M,2.8,0000*4D
$GPVTG,0.00,T,,M,0.00,N,0.0,K,D*08
$GPGGA,011210.000,3017.2201,N,09744.0053,W,2,09,1.0,155.2,M,-22.5,M,1.8,0000*46
$GPVTG,0.00,T,,M,0.00,N,0.0,K,D*08
$GPGGA,011211.000,3017.2201,N,09744.0053,W,2,09,1.0,155.2,M,-22.5,M,1.8,0000*47
$GPVTG,0.00,T,,M,0.00,N,0.0,K,D*08
$GPGGA,011212.000,3017.2201,N,09744.0053,W,2,09,1.0,155.3,M,-22.5,M,1.8,0000*45
$GPVTG,0.00,T,,M,0.00,N,0.0,K,D*08